nombre,accesibilidad_total,e4_servicios_higienicos,lat,lon
sergio cardell,accesibilidad alta,,38.3647338,-0.4323103
mirador del castillo,accesibilidad alta,,38.3481957,-0.4795226
valencia once,accesibilidad alta,accesibilidad alta,38.3525297,-0.4838708
mercadona,accesibilidad alta,,38.3617135,-0.4802513
torre mauro,accesibilidad alta,,38.3660534,-0.4308318
correos,accesibilidad alta,,38.3656993,-0.4311114
primark,accesibilidad alta,,38.3672564,-0.4696366
nacara,accesibilidad alta,,38.3665208,-0.4290554
restaurante tailandes sabatika,accesibilidad alta,,38.3663084,-0.4304591
restaurante darsena,accesibilidad alta,,38.338395,-0.4869017
hospital,accesibilidad alta,,38.3643274,-0.4838579
juan garcia ortiz,accesibilidad alta,,38.3588079,-0.4727597
centro de salud ciudad jardin,accesibilidad alta,accesibilidad alta,38.3754255,-0.4949514
holanda,accesibilidad alta,,38.3681319,-0.4198137
canela,accesibilidad alta,,38.3662597,-0.4304644
bbva,accesibilidad alta,,38.3639818,-0.4314956
la masa de tomasa,accesibilidad alta,accesibilidad baja,38.3478149,-0.4845617
mercado,accesibilidad alta,accesibilidad baja,38.3483516,-0.4847737
marq-castillo,accesibilidad alta,,38.3519992,-0.4764427
eleuterio maisonnave,accesibilidad alta,,38.3435353,-0.4889015
nh,accesibilidad alta,,38.3364538,-0.50713
la lonja,accesibilidad alta,,38.349374,-0.4867714
mercado-el sabio,accesibilidad alta,,38.3472844,-0.4869425
rambla-portal de elche,accesibilidad alta,,38.3446147,-0.4834853
rambla-san jose,accesibilidad alta,,38.3451765,-0.4836064
c.a. montemar,accesibilidad alta,,38.3571008,-0.4764069
avenida de denia - canonigo penalva,accesibilidad alta,,38.3526538,-0.4728363
gaston castello (tram),accesibilidad alta,,38.3733039,-0.4870928
calderon-la lonja,accesibilidad alta,,38.3499284,-0.4857024
mercado-el sabio,accesibilidad alta,,38.3473981,-0.486665
explanada de espanya,accesibilidad alta,,38.3436603,-0.4827888
padre espla-vidal,accesibilidad alta,,38.3562851,-0.4782265
palmeretes,accesibilidad alta,,38.3553339,-0.4824524
pio xii,accesibilidad alta,,38.355832,-0.4799831
pio xii,accesibilidad alta,,38.3553998,-0.479968
misericordia,accesibilidad alta,,38.3520973,-0.4835943
misericordia,accesibilidad alta,,38.3520536,-0.4837578
rambla-san jose,accesibilidad alta,,38.3453614,-0.4837026
castello-esmeralda,accesibilidad alta,,38.3747007,-0.4871262
c.p. lucentum,accesibilidad alta,,38.3748133,-0.4932411
alacant-estels,accesibilidad alta,,38.3459294,-0.4908702
la olivera,accesibilidad alta,,38.3579082,-0.4747783
bulevar del pla (tram),accesibilidad alta,,38.3587963,-0.4724778
c.a. montemar,accesibilidad alta,,38.3572522,-0.4765063
la olivera,accesibilidad alta,,38.3578562,-0.4744059
bulevar del pla (tram),accesibilidad alta,,38.3589719,-0.471569
av. naciones,accesibilidad alta,,38.3623141,-0.4203368
v. reyes,accesibilidad alta,,38.3648024,-0.4720701
c.c. gran via,accesibilidad alta,,38.3656229,-0.4712372
cafeteria mare nostrum,accesibilidad alta,,38.3444062,-0.4956106
tim hortons,accesibilidad alta,,38.3444617,-0.4958563
rambla-portal de elche,accesibilidad alta,,38.3447573,-0.4833699
garbinet,accesibilidad alta,,38.3624308,-0.4783146
hospital,accesibilidad alta,,38.3642932,-0.483873
gloria ferez,accesibilidad alta,,38.3651713,-0.4970922
mercadona,accesibilidad alta,,38.3397316,-0.4997953
soda bar,accesibilidad alta,,38.3465326,-0.4862873
casino sportium,accesibilidad alta,,38.3623034,-0.4874003
europa,accesibilidad alta,,38.3367437,-0.5070558
hostal les monges palace,accesibilidad alta,,38.3458972,-0.4815316
sergio cardell,accesibilidad alta,,38.3647426,-0.4322852
av. naciones,accesibilidad alta,,38.3623467,-0.4203392
fixphone,accesibilidad alta,,38.3677022,-0.4262222
garbinet,accesibilidad alta,,38.3624581,-0.4782298
bulevar del pla,accesibilidad alta,,38.359949,-0.4720944
bulevar del pla,accesibilidad alta,,38.3599791,-0.4720794
pintor gaston castello,accesibilidad alta,,38.3739213,-0.4871507
pintor gaston castello,accesibilidad alta,,38.3739248,-0.4871071
la isleta,accesibilidad alta,,38.3628861,-0.4470381
la isleta,accesibilidad alta,,38.3629058,-0.4470711
bar lucy,accesibilidad alta,,38.3480984,-0.5104992
cafeteria jijona babel,accesibilidad alta,,38.341069,-0.5064049
optica nueva vision,accesibilidad alta,,38.3511071,-0.4854794
supercor,accesibilidad alta,,38.3479677,-0.4845536
ascensor al castillo de santa barbara,accesibilidad alta,,38.3467887,-0.4769547
telepizza,accesibilidad alta,,38.3445308,-0.5094853
san gabriel-cercanias,accesibilidad alta,,38.3290672,-0.5091648
luceros,accesibilidad alta,,38.3459859,-0.4905968
luceros,accesibilidad alta,,38.3460752,-0.490648
luceros,accesibilidad alta,,38.3460283,-0.4906238
mercado,accesibilidad alta,,38.3481553,-0.4848257
parque del mar,accesibilidad alta,,38.3325707,-0.5061936
alcampo,accesibilidad alta,,38.3547252,-0.4713733
pizzeria popeye,accesibilidad alta,,38.37011,-0.4144491
farmacia velero blanco,accesibilidad alta,,38.384647,-0.4122218
disfruta zumos naturales,accesibilidad alta,,38.3493091,-0.4884099
the good burger,accesibilidad alta,,38.3441014,-0.4837338
coffee nutz,accesibilidad alta,,38.3475316,-0.4845614
representantes,accesibilidad alta,,38.3523192,-0.4862858
representantes,accesibilidad alta,,38.3516608,-0.4872809
"rambla mendez nunyez, 4-6",accesibilidad alta,,38.3441059,-0.4830176
v. reyes,accesibilidad alta,,38.3648355,-0.4723021
las piramides,accesibilidad alta,,38.3591127,-0.4821192
i2e (ingenieria informatica empresarial),accesibilidad alta,,38.3451668,-0.5068288
moeve,accesibilidad alta,,38.3856792,-0.4498206
tedi,accesibilidad alta,,38.3404801,-0.490889
alohers coffee surf,accesibilidad alta,,38.3629488,-0.4115241
always,accesibilidad alta,,38.3405526,-0.490716
castello-esmeralda,accesibilidad alta,,38.3753557,-0.4872578
denia - cc plaza mar 2,accesibilidad alta,,38.3532276,-0.4735168
denia - canonigo penalva ii,accesibilidad alta,,38.3524864,-0.473603
euipo-elche,accesibilidad alta,,38.3125598,-0.5164248
euipo-elche,accesibilidad alta,,38.3128674,-0.5167041
chiringuito rompeolas,accesibilidad alta,,38.3462433,-0.4767517
sip and wonder,accesibilidad alta,,38.3476979,-0.4874669
udaco,accesibilidad alta,,38.3482511,-0.4753267
wen zhou shang chang,accesibilidad alta,,38.3412352,-0.4892395
palmitas,accesibilidad alta,accesibilidad alta,38.3441689,-0.4815666
federopticos lledo - jornet,accesibilidad alta,,38.3585641,-0.4781891
suma gestion tributaria,accesibilidad alta,,38.3432968,-0.5097687
cash quality,accesibilidad alta,,38.376372,-0.5060028
la cocina del buen comer,accesibilidad alta,,38.3418532,-0.4891067
lavanderia autoservicio flor de len,accesibilidad alta,,38.3433554,-0.5141718
joyeria marga mira,accesibilidad alta,,38.3443873,-0.4918548
talleres d&d eurotaller,accesibilidad alta,,38.3383915,-0.5197594
mg electricidad,accesibilidad alta,,38.3634421,-0.4935631
cim formacion alicante,accesibilidad alta,,38.3488762,-0.4914931
marel mujer,accesibilidad alta,,38.3450531,-0.4887736
pc box,accesibilidad alta,,38.34494,-0.4886938
ulanka,accesibilidad alta,,38.343408,-0.4893328
punto roma,accesibilidad alta,,38.3434217,-0.4892289
farmacia del teatro,accesibilidad alta,,38.3456448,-0.486491
urgencies,accesibilidad alta,,38.3527883,-0.4758436
hospital de dia,accesibilidad alta,,38.3527772,-0.4764815
radiologia,accesibilidad alta,,38.3523711,-0.4757895
radioterapia,accesibilidad alta,,38.3524669,-0.4762525
consultes externes,accesibilidad alta,,38.3642271,-0.4856023
once,accesibilidad alta,,38.3637914,-0.4845753
alacant terminal,accesibilidad alta,,38.3449804,-0.496061
dua clinic,accesibilidad alta,,38.3701775,-0.4144339
aromas artesanales,accesibilidad alta,,38.3545628,-0.4717984
r. altamira,accesibilidad alta,,38.3443553,-0.4828569
villafranqueza-iglesia,accesibilidad alta,,38.3866462,-0.491036
pio xii,accesibilidad alta,,38.3557582,-0.4801644
carrefour express,accesibilidad alta,,38.3857389,-0.4498632
kfc,accesibilidad alta,,38.3712826,-0.4572116
cafetea,accesibilidad alta,,38.3595678,-0.4831337
mileljos,accesibilidad alta,accesibilidad baja,38.3416311,-0.4923839
akraclima instalaciones aire acondicionado,accesibilidad alta,,38.349046,-0.4745403
mussa beauty salon,accesibilidad alta,,38.3668814,-0.4262453
sukiya,accesibilidad alta,accesibilidad alta,38.3484319,-0.487625
suma,accesibilidad alta,,38.3469514,-0.4843385
boga sky bar,accesibilidad alta,,38.3648946,-0.4177233
santa faz,accesibilidad alta,,38.3446548,-0.4830219
oakberry asai,accesibilidad alta,,38.344732,-0.4821205
indian house,accesibilidad alta,,38.3419112,-0.4874218
spar,accesibilidad alta,,38.3574482,-0.4824449
mercadona,accesibilidad alta,,38.3452157,-0.4933927
taberna rincon de miguel 2,accesibilidad alta,,38.3571926,-0.4788917
foster's hollywood,accesibilidad alta,,38.338368,-0.4864816
go 99,accesibilidad alta,,38.3401184,-0.4899004
spar,accesibilidad alta,,38.3554469,-0.4881024
+copy,accesibilidad alta,,38.3594783,-0.4911098
tepemok,accesibilidad alta,,38.3497067,-0.4878388
pepco,accesibilidad alta,,38.3748159,-0.5059183
pepco,accesibilidad alta,,38.3670679,-0.4692337
pepco,accesibilidad alta,,38.3546918,-0.5023657
pepco,accesibilidad alta,,38.3421127,-0.4908322
umh - universitat miguel hernandez - campus de sant joan d'alacant,accesibilidad alta,accesibilidad alta,38.3885882,-0.4363055
castell de santa barbara,accesibilidad alta,,38.3490916,-0.4781771
passeig de l'esplanada d'espanya / paseo de la explanada de espanya,accesibilidad alta,,38.3432153,-0.4832701
seu universitaria ciutat d'alacant / sede universitaria ciudad de alicante,accesibilidad alta,,38.3416092,-0.487079
el corte ingles,accesibilidad alta,,38.3440222,-0.4898638
el corte ingles,accesibilidad alta,,38.3428999,-0.4933472
passeig de l'escriptor joan fuster / paseo del escritor joan fuster,accesibilidad alta,,38.3318946,-0.5072735
plasa del papa joan pau ii / plaza del papa juan pablo ii,accesibilidad alta,,38.3534913,-0.5117808
plasa de conchi rodriguez vicaria / plaza conchi rodriguez vicaria,accesibilidad alta,,38.375737,-0.4956985
centro de salud ciudad jardin / centre de salut ciutat jardi,accesibilidad alta,accesibilidad alta,38.3754246,-0.4949259
plasa d'argel / plaza de argel,accesibilidad alta,,38.3743081,-0.4915204
plasa de l'esportista andres munyoz / plaza del deportista andres munyoz,accesibilidad alta,,38.3384951,-0.4926727
higienetodo,accesibilidad alta,,38.3400827,-0.5608254
cami del clot / camino del clot,accesibilidad alta,,38.3791964,-0.4998765
burger king,accesibilidad alta,,38.3653364,-0.4862979
estadio jose rico perez,accesibilidad alta,,38.3573816,-0.4926034
pasarela acceso playa,accesibilidad alta,,38.3470854,-0.4761224
piscina climatizada,accesibilidad alta,,38.3610735,-0.4243518
policia local,accesibilidad alta,,38.3645207,-0.4100177
mercadona,accesibilidad alta,,38.3665778,-0.4189696
collegi d'educacio infantil i primaria san fernando,accesibilidad alta,,38.3552455,-0.4993587
hotel ac alicante,accesibilidad alta,,38.3386446,-0.4948575
plasa de l'arquitecte miguel lopez / plaza del arquitecto miguel lopez,accesibilidad alta,,38.3380061,-0.4930059
supercor,accesibilidad alta,,38.3689236,-0.445714
pasarela acceso playa,accesibilidad alta,,38.3469738,-0.4760412
nostrum,accesibilidad alta,,38.3443064,-0.4890458
"casa alberola alicante, curio collection by hilton",accesibilidad alta,,38.3422175,-0.4866396
mercadona,accesibilidad alta,,38.3413337,-0.4920436
moeve,accesibilidad alta,,38.3378322,-0.5004737
panaderia bravo bolleria,accesibilidad alta,,38.3437017,-0.5110716
maya,accesibilidad alta,,38.3518506,-0.4747021
auditorio la concha,accesibilidad alta,,38.3428843,-0.4837883
carrer del mestre rosillo / calle maestro rosillo,accesibilidad alta,,38.3757954,-0.4804278
avinguda de la baronia de polop / avenida baronia de polop,accesibilidad alta,,38.3760441,-0.4946521
carrer del clot / calle clot,accesibilidad alta,,38.3758656,-0.4960793
carrer de santa maria josefa / calle santa maria josefa,accesibilidad alta,,38.3751506,-0.4972851
carrer de santa maria josefa / calle santa maria josefa,accesibilidad alta,,38.3754313,-0.4960479
carrer de santa maria josefa / calle santa maria josefa,accesibilidad alta,,38.3755513,-0.4955234
carrer d'ortega y gasset / calle ortega y gasset,accesibilidad alta,,38.3746791,-0.4934706
carrer del clot / calle clot,accesibilidad alta,,38.3750085,-0.4958019
carrer del clot / calle clot,accesibilidad alta,,38.3753153,-0.4958992
carrer del clot / calle clot,accesibilidad alta,,38.3753571,-0.4953032
carrer de l'economista german bernacer / calle economista german bernacer,accesibilidad alta,,38.3750163,-0.4925827
carrer de l'economista german bernacer / calle economista german bernacer,accesibilidad alta,,38.3749084,-0.4925812
carrer de parcent / calle parcent,accesibilidad alta,,38.3748775,-0.492562
carrer del clot / calle clot,accesibilidad alta,,38.3765139,-0.4962971
carrer del clot / calle clot,accesibilidad alta,,38.3762081,-0.49611
carrer del clot / calle clot,accesibilidad alta,,38.3771734,-0.49644
carrer del clot / calle clot,accesibilidad alta,,38.3770589,-0.496026
carrer del clot / calle clot,accesibilidad alta,,38.3770717,-0.4961921
carrer del clot / calle clot,accesibilidad alta,,38.3768841,-0.496333
avinguda de la baronia de polop / avenida baronia de polop,accesibilidad alta,,38.3759932,-0.4963622
avinguda de la baronia de polop / avenida baronia de polop,accesibilidad alta,,38.3760348,-0.4963696
plasa de la cruz / plaza de la cruz,accesibilidad alta,,38.3758794,-0.4893682
carrer del pintor perez pizarro / calle pintor perez pizarro,accesibilidad alta,,38.374068,-0.4905933
carrer de l'advocat perez mirete / calle abogado perez mirete,accesibilidad alta,,38.3747128,-0.4919932
carrer del music alfosea / calle musico alfosea,accesibilidad alta,,38.3733974,-0.4895101
plasa del doctor gascunyana hernando / plaza del doctor gascunyana hernando,accesibilidad alta,,38.3750713,-0.4882798
carrer del music alfosea / calle musico alfosea,accesibilidad alta,,38.3740626,-0.4895033
carrer del publicista jose tari / calle publicista jose tari,accesibilidad alta,,38.3740628,-0.4898657
carrer senyorita de trevelez / calle senyorita de trevelez,accesibilidad alta,,38.3747245,-0.4927805
carrer del doctor claramunt / calle doctor claramunt,accesibilidad alta,,38.3748665,-0.4894186
carrer del pintor perez pizarro / calle pintor perez pizarro,accesibilidad alta,,38.3747088,-0.4905894
carrer del publicista jose tari / calle publicista jose tari,accesibilidad alta,,38.3747025,-0.4898609
carrer de la maragda / calle esmeralda,accesibilidad alta,,38.3750347,-0.4850952
carrer del cronista figueras pacheco / calle cronista figueras pacheco,accesibilidad alta,,38.3726021,-0.4847432
carrer del safir / calle zafiro,accesibilidad alta,,38.3747129,-0.4864673
carrer de la perla / calle perla,accesibilidad alta,,38.3745354,-0.4864612
carrer del music alfosea / calle musico alfosea,accesibilidad alta,,38.3747076,-0.4894954
carrer de l'economista german bernacer / calle economista german bernacer,accesibilidad alta,,38.3747489,-0.4904484
carrer de l'economista german bernacer / calle economista german bernacer,accesibilidad alta,,38.3748336,-0.4913716
carrer de l'economista german bernacer / calle economista german bernacer,accesibilidad alta,,38.3748364,-0.4919302
plasa de la cruz / plaza de la cruz,accesibilidad alta,,38.3761141,-0.4885964
plasa de la cruz / plaza de la cruz,accesibilidad alta,,38.3760934,-0.4881395
plasa del doctor gascunyana hernando / plaza del doctor gascunyana hernando,accesibilidad alta,,38.3751383,-0.4878699
carrer del farmaceutic agatangelo soler / calle farmaceutico agatangelo soler,accesibilidad alta,,38.375163,-0.4874047
carrer del farmaceutic agatangelo soler / calle farmaceutico agatangelo soler,accesibilidad alta,,38.3750873,-0.4873929
carrer de valdes leal / calle valdes leal,accesibilidad alta,,38.3747639,-0.4988702
carrer del capella planelles / calle cura planelles,accesibilidad alta,,38.3727938,-0.4979586
carrer del farmaceutic agatangelo soler / calle farmaceutico agatangelo soler,accesibilidad alta,,38.3750314,-0.4873836
carrer de l'economista german bernacer / calle economista german bernacer,accesibilidad alta,,38.374762,-0.4913699
avinguda de la baronia de polop / avenida baronia de polop,accesibilidad alta,,38.3765688,-0.4896198
carrer del farmaceutic agatangelo soler / calle farmaceutico agatangelo soler,accesibilidad alta,,38.3747917,-0.4891411
carrer del doctor claramunt / calle doctor claramunt,accesibilidad alta,,38.3748732,-0.4893523
carrer del doctor claramunt / calle doctor claramunt,accesibilidad alta,,38.3748813,-0.4892739
plasa de la cruz / plaza de la cruz,accesibilidad alta,,38.3760307,-0.4893717
plasa de la cruz / plaza de la cruz,accesibilidad alta,,38.376039,-0.4885881
plasa de la cruz / plaza de la cruz,accesibilidad alta,,38.3761575,-0.4881496
plasa de la cruz / plaza de la cruz,accesibilidad alta,,38.3763521,-0.4881199
plasa de la cruz / plaza de la cruz,accesibilidad alta,,38.3763769,-0.488336
plasa de la cruz / plaza de la cruz,accesibilidad alta,,38.376404,-0.4883388
plasa de la cruz / plaza de la cruz,accesibilidad alta,,38.3764462,-0.4883435
carrer del doctor claramunt / calle doctor claramunt,accesibilidad alta,,38.3760729,-0.4896074
carrer del doctor claramunt / calle doctor claramunt,accesibilidad alta,,38.3760796,-0.4894652
carrer del doctor claramunt / calle doctor claramunt,accesibilidad alta,,38.3760762,-0.4895373
carrer del publicista jose tari / calle publicista jose tari,accesibilidad alta,,38.3747026,-0.489801
carrer de l'economista german bernacer / calle economista german bernacer,accesibilidad alta,,38.3748219,-0.4904496
carrer del pintor perez pizarro / calle pintor perez pizarro,accesibilidad alta,,38.3747091,-0.4905043
carrer del pintor perez pizarro / calle pintor perez pizarro,accesibilidad alta,,38.3747089,-0.4905523
carrer de l'economista german bernacer / calle economista german bernacer,accesibilidad alta,,38.3747968,-0.4913707
carrer de l'economista german bernacer / calle economista german bernacer,accesibilidad alta,,38.3747652,-0.4919292
carrer de l'economista german bernacer / calle economista german bernacer,accesibilidad alta,,38.3747989,-0.4919296
carrer de l'advocat perez mirete / calle abogado perez mirete,accesibilidad alta,,38.3747134,-0.4920615
carrer del music torres climent / calle musico torres climent,accesibilidad alta,,38.3748713,-0.4920305
carrer de parcent / calle parcent,accesibilidad alta,,38.3748774,-0.4924762
carrer de l'economista german bernacer / calle economista german bernacer,accesibilidad alta,,38.3749763,-0.4925825
carrer de parcent / calle parcent,accesibilidad alta,,38.3748774,-0.4923878
plasa del doctor gascunyana hernando / plaza del doctor gascunyana hernando,accesibilidad alta,,38.3751439,-0.4878247
avinguda de la baronia de polop / avenida baronia de polop,accesibilidad alta,,38.3765774,-0.4895401
avinguda de la baronia de polop / avenida baronia de polop,accesibilidad alta,,38.3768753,-0.4880248
avinguda de la baronia de polop / avenida baronia de polop,accesibilidad alta,,38.3769205,-0.4880321
carrer del farmaceutic agatangelo soler / calle farmaceutico agatangelo soler,accesibilidad alta,,38.3747731,-0.4892639
carrer del farmaceutic agatangelo soler / calle farmaceutico agatangelo soler,accesibilidad alta,,38.3749005,-0.4882536
carrer del doctor claramunt / calle doctor claramunt,accesibilidad alta,,38.3751628,-0.4895285
carrer del doctor claramunt / calle doctor claramunt,accesibilidad alta,,38.3753693,-0.4895619
plasa de la creu / plaza de la cruz,accesibilidad alta,,38.376449,-0.4880233
"musico jose torregrosa, 2",accesibilidad alta,,38.3867133,-0.4910545
carrer del senador jose vicente mateo / calle senador jose vicente mateo,accesibilidad alta,,38.3705557,-0.4832639
carrer del senador jose vicente mateo / calle senador jose vicente mateo,accesibilidad alta,,38.3708092,-0.483192
plasa d'ora / plaza de oran,accesibilidad alta,,38.3721156,-0.4851688
carrer de moncada / calle moncada,accesibilidad alta,,38.3720623,-0.4855992
avinguda del pintor gaston castello / avenida del pintor gaston castello,accesibilidad alta,,38.3754301,-0.4872937
avinguda del pintor gaston castello / avenida del pintor gaston castello,accesibilidad alta,,38.3754333,-0.4871646
avinguda del pintor gaston castello / avenida del pintor gaston castello,accesibilidad alta,,38.3754315,-0.4872303
carrer del geograf rey pastor / calle geografo rey pastor,accesibilidad alta,,38.3723617,-0.4863679
carrer del geograf rey pastor / calle geografo rey pastor,accesibilidad alta,,38.372465,-0.4866205
carrer del geograf rey pastor / calle geografo rey pastor,accesibilidad alta,,38.3724073,-0.4861119
carrer del geograf rey pastor / calle geografo rey pastor,accesibilidad alta,,38.3724356,-0.486361
carrer del farmaceutic agatangelo soler / calle farmaceutico agatangelo soler,accesibilidad alta,,38.3748719,-0.4891573
carrer del farmaceutic agatangelo soler / calle farmaceutico agatangelo soler,accesibilidad alta,,38.3748319,-0.4891492
plasa del doctor gascunyana hernando / plaza del doctor gascunyana hernando,accesibilidad alta,,38.3751492,-0.4877825
carrer de la maragda / calle esmeralda,accesibilidad alta,,38.3749179,-0.4871239
carrer de la maragda / calle esmeralda,accesibilidad alta,,38.3749816,-0.4867301
pintor gaston castello,accesibilidad alta,,38.3737413,-0.4870424
carrer del music alfosea / calle musico alfosea,accesibilidad alta,,38.3747067,-0.4893941
carrer del publicista jose tari / calle publicista jose tari,accesibilidad alta,,38.3747027,-0.4897436
carrer del music alfosea / calle musico alfosea,accesibilidad alta,,38.374062,-0.4894527
carrer del music alfosea / calle musico alfosea,accesibilidad alta,,38.3740615,-0.489394
carrer del publicista jose tari / calle publicista jose tari,accesibilidad alta,,38.3740633,-0.4898014
carrer de l'economista german bernacer / calle economista german bernacer,accesibilidad alta,,38.3747859,-0.4904489
carrer del pintor perez pizarro / calle pintor perez pizarro,accesibilidad alta,,38.3740677,-0.4905547
carrer del pintor perez pizarro / calle pintor perez pizarro,accesibilidad alta,,38.3740672,-0.4905078
carrer de la serra d'aitana / calle sierra de aitana,accesibilidad alta,,38.3721561,-0.4872184
carrer de la serra cabeso d'or / calle sierra cabezo d'or,accesibilidad alta,,38.3719094,-0.487162
carrer de l'economista german bernacer / calle economista german bernacer,accesibilidad alta,,38.3747934,-0.4933446
carrer de l'economista german bernacer / calle economista german bernacer,accesibilidad alta,,38.3747208,-0.4933406
carrer d'ortega y gasset / calle ortega y gasset,accesibilidad alta,,38.3746845,-0.4934074
carrer d'ortega y gasset / calle ortega y gasset,accesibilidad alta,,38.3746897,-0.4933461
carrer del clot / calle clot,accesibilidad alta,,38.3750738,-0.4952395
carrer del clot / calle clot,accesibilidad alta,,38.3750788,-0.4951902
carrer del clot / calle clot,accesibilidad alta,,38.3750833,-0.4951423
carrer del clot / calle clot,accesibilidad alta,,38.3759368,-0.495493
carrer del clot / calle clot,accesibilidad alta,,38.3753722,-0.4952291
carrer del clot / calle clot,accesibilidad alta,,38.3753641,-0.495269
carrer de santa maria josefa / calle santa maria josefa,accesibilidad alta,,38.3754995,-0.4955068
carrer de santa maria josefa / calle santa maria josefa,accesibilidad alta,,38.3755265,-0.4955154
carrer del clot / calle clot,accesibilidad alta,,38.3759483,-0.495416
carrer del clot / calle clot,accesibilidad alta,,38.3758705,-0.4960394
carrer del clot / calle clot,accesibilidad alta,,38.3758743,-0.4960087
carrer del clot / calle clot,accesibilidad alta,,38.3755363,-0.4959735
carrer del clot / calle clot,accesibilidad alta,,38.375544,-0.4959322
carrer del clot / calle clot,accesibilidad alta,,38.3755503,-0.495897
carrer de santa maria josefa / calle santa maria josefa,accesibilidad alta,,38.3754033,-0.4960376
carrer de santa maria josefa / calle santa maria josefa,accesibilidad alta,,38.3753857,-0.4960311
carrer del clot / calle clot,accesibilidad alta,,38.3753211,-0.4958617
carrer del clot / calle clot,accesibilidad alta,,38.3753268,-0.4958277
carrer del clot / calle clot,accesibilidad alta,,38.375015,-0.4957605
carrer del clot / calle clot,accesibilidad alta,,38.3750206,-0.4957244
carrer de santa maria josefa / calle santa maria josefa,accesibilidad alta,,38.3751228,-0.4972736
carrer de santa maria josefa / calle santa maria josefa,accesibilidad alta,,38.3751072,-0.4972673
carrer del clot / calle clot,accesibilidad alta,,38.3759421,-0.495458
avinguda de la baronia de polop / avenida baronia de polop,accesibilidad alta,,38.375889,-0.498507
avinguda de la baronia de polop / avenida baronia de polop,accesibilidad alta,,38.3756498,-0.4983969
avinguda del pintor gaston castello / avenida del pintor gaston castello,accesibilidad alta,,38.3741929,-0.4871271
avinguda del pintor gaston castello / avenida del pintor gaston castello,accesibilidad alta,,38.3741984,-0.4870642
carrer de la serra maigmo / calle sierra maigmo,accesibilidad alta,,38.37345,-0.4876347
carrer de la serra maigmo / calle sierra maigmo,accesibilidad alta,,38.3734543,-0.4876004
carrer de la serra maigmo / calle sierra maigmo,accesibilidad alta,,38.3734585,-0.4875677
avinguda de la baronia de polop / avenida baronia de polop,accesibilidad alta,,38.3757667,-0.4973628
avinguda de la baronia de polop / avenida baronia de polop,accesibilidad alta,,38.3758311,-0.4973746
avinguda de la baronia de polop / avenida baronia de polop,accesibilidad alta,,38.3758694,-0.4973811
avinguda de la baronia de polop / avenida baronia de polop,accesibilidad alta,,38.3758818,-0.4963435
avinguda de la baronia de polop / avenida baronia de polop,accesibilidad alta,,38.3759427,-0.4963538
carrer del quars / calle cuarzo,accesibilidad alta,,38.376836,-0.4871298
carrer del quars / calle cuarzo,accesibilidad alta,,38.3769945,-0.4871534
carrer del quars / calle cuarzo,accesibilidad alta,,38.376907,-0.4871404
carrer de la maragda / calle esmeralda,accesibilidad alta,,38.3749313,-0.4867262
carrer de la maragda / calle esmeralda,accesibilidad alta,,38.3748892,-0.4867228
carrer del traverti / calle travertino,accesibilidad alta,,38.3748806,-0.4868265
carrer del traverti / calle travertino,accesibilidad alta,,38.374882,-0.4867496
carrer del traverti / calle travertino,accesibilidad alta,,38.3748813,-0.4867904
carrer del quars / calle cuarzo,accesibilidad alta,,38.3748761,-0.4862113
carrer del quars / calle cuarzo,accesibilidad alta,,38.3748785,-0.4861328
carrer del quars / calle cuarzo,accesibilidad alta,,38.374881,-0.4860494
carrer del safir / calle zafiro,accesibilidad alta,,38.3747053,-0.4867128
carrer del safir / calle zafiro,accesibilidad alta,,38.374775,-0.486718
carrer del safir / calle zafiro,accesibilidad alta,,38.3747391,-0.4867153
carrer del safir / calle zafiro,accesibilidad alta,,38.3747305,-0.4862285
carrer del safir / calle zafiro,accesibilidad alta,,38.3747915,-0.4862329
carrer del safir / calle zafiro,accesibilidad alta,,38.3747613,-0.4862307
carrer del quars / calle cuarzo,accesibilidad alta,,38.3757088,-0.486267
carrer del quars / calle cuarzo,accesibilidad alta,,38.3757099,-0.4862015
carrer del quars / calle cuarzo,accesibilidad alta,,38.375712,-0.486114
carrer de la perla / calle perla,accesibilidad alta,,38.3745549,-0.4862049
carrer de la perla / calle perla,accesibilidad alta,,38.3745867,-0.486207
carrer de la perla / calle perla,accesibilidad alta,,38.3746117,-0.4862085
carrer del plati / calle platino,accesibilidad alta,,38.3740018,-0.4866687
carrer del plati / calle platino,accesibilidad alta,,38.3740365,-0.4866718
carrer del plati / calle platino,accesibilidad alta,,38.3740718,-0.4866749
carrer de la perla / calle perla,accesibilidad alta,,38.3745274,-0.4866993
carrer de la perla / calle perla,accesibilidad alta,,38.3745634,-0.4867022
carrer de la perla / calle perla,accesibilidad alta,,38.3745986,-0.486705
carrer de la maragda / calle esmeralda,accesibilidad alta,,38.3749082,-0.4860138
carrer de la maragda / calle esmeralda,accesibilidad alta,,38.3749905,-0.4860173
carrer de la maragda / calle esmeralda,accesibilidad alta,,38.3749445,-0.4860155
carrer del traverti / calle travertino,accesibilidad alta,,38.3746165,-0.4868073
carrer del traverti / calle travertino,accesibilidad alta,,38.3746175,-0.486769
carrer del traverti / calle travertino,accesibilidad alta,,38.3746185,-0.4867297
carrer del diamant / calle diamante,accesibilidad alta,,38.3743523,-0.4866873
carrer del diamant / calle diamante,accesibilidad alta,,38.374387,-0.4866902
carrer del diamant / calle diamante,accesibilidad alta,,38.3744208,-0.4866932
avinguda de la baronia de polop / avenida baronia de polop,accesibilidad alta,,38.3760777,-0.4963774
passatge poeta bartrina / pasaje poeta bartrina,accesibilidad alta,,38.3742734,-0.4827015
carrer del diamant / calle diamante,accesibilidad alta,,38.374379,-0.4862081
carrer del diamant / calle diamante,accesibilidad alta,,38.3744339,-0.4862129
carrer del diamant / calle diamante,accesibilidad alta,,38.3744062,-0.4862106
carrer de la plata / calle plata,accesibilidad alta,,38.3741754,-0.4866775
carrer de la plata / calle plata,accesibilidad alta,,38.374248,-0.4866825
carrer de la plata / calle plata,accesibilidad alta,,38.3742117,-0.48668
carrer del periodista francisco bas mingot / calle periodista francisco bas mingot,accesibilidad alta,,38.3747235,-0.4797889
carrer salvador allende / calle salvador allende,accesibilidad alta,,38.3766195,-0.4788499
carrer del periodista francisco bas mingot / calle periodista francisco bas mingot,accesibilidad alta,,38.3746456,-0.481276
carrer del periodista francisco bas mingot / calle periodista francisco bas mingot,accesibilidad alta,,38.3745394,-0.4793283
carrer de vicente alexandre / calle vicente alexandre,accesibilidad alta,,38.3696489,-0.4923918
carrer de la plata / calle plata,accesibilidad alta,,38.3742036,-0.4861889
carrer de la plata / calle plata,accesibilidad alta,,38.3742336,-0.4861916
carrer de la plata / calle plata,accesibilidad alta,,38.3742629,-0.486194
carrer del plati / calle platino,accesibilidad alta,,38.3740291,-0.4861841
carrer del plati / calle platino,accesibilidad alta,,38.3740566,-0.4861868
carrer del plati / calle platino,accesibilidad alta,,38.3740838,-0.486189
carrer del quars / calle cuarzo,accesibilidad alta,,38.37394,-0.486146
carrer del quars / calle cuarzo,accesibilidad alta,,38.3739826,-0.4860706
carrer del quars / calle cuarzo,accesibilidad alta,,38.3740223,-0.4860001
carrer del canonge giner / calle canonigo giner,accesibilidad alta,,38.3732927,-0.4872887
carrer de benejusser / calle benejuzar,accesibilidad alta,,38.3693093,-0.4824523
carrer del diputat juan antonio rodriguez marin / calle diputado juan antonio rodriguez marin,accesibilidad alta,,38.3692435,-0.4842154
carrer del diputat antonio garcia miralles / calle diputado antonio garcia miralles,accesibilidad alta,,38.3688688,-0.4841132
carrer del cronista figueras pacheco / calle cronista figueras pacheco,accesibilidad alta,,38.3725156,-0.4853529
carrer del cronista figueras pacheco / calle cronista figueras pacheco,accesibilidad alta,,38.3725756,-0.4858532
carrer del geograf rey pastor / calle geografo rey pastor,accesibilidad alta,,38.3723309,-0.4854441
carrer de vicente alexandre / calle vicente alexandre,accesibilidad alta,,38.3657837,-0.4905634
carrer agustin jimenez navarlaz / calle agustin jimenez navarlaz,accesibilidad alta,,38.3660088,-0.4895822
carrer de sant pere poveda / calle san pedro poveda,accesibilidad alta,,38.3664069,-0.489956
carrer d'alcala galiano / calle alcala galiano,accesibilidad alta,,38.3573095,-0.4842858
carrer del clot / calle clot,accesibilidad alta,,38.3768726,-0.4963962
carrer del clot / calle clot,accesibilidad alta,,38.3768957,-0.4962684
carrer del clot / calle clot,accesibilidad alta,,38.3771842,-0.496378
carrer del clot / calle clot,accesibilidad alta,,38.3771641,-0.4964935
carrer del clot / calle clot,accesibilidad alta,,38.3761986,-0.4961728
carrer del clot / calle clot,accesibilidad alta,,38.3770341,-0.49618
carrer del clot / calle clot,accesibilidad alta,,38.3771142,-0.4962057
carrer de la turquesa / calle turquesa,accesibilidad alta,,38.377256,-0.4843664
calle geografo rey pastor / carrer del geograf rey pastor,accesibilidad alta,,38.372354,-0.4859461
avinguda ronda de melilla / avenida ronda de melilla,accesibilidad alta,,38.3736418,-0.4829173
carrer del periodista francisco bas mingot / calle periodista francisco bas mingot,accesibilidad alta,,38.374683,-0.483107
carrer periodista francisco bas mingot / calle periodista francisco bas mingot,accesibilidad alta,,38.3746799,-0.4829418
carrer sierra montgo / calle sierra montgo,accesibilidad alta,,38.3716531,-0.488556
carrer d'alonso cano / calle alonso cano,accesibilidad alta,,38.3723611,-0.4825753
carrer d'alonso cano / calle alonso cano,accesibilidad alta,,38.3724628,-0.4827748
carrer d'alonso cano / calle alonso cano,accesibilidad alta,,38.3724634,-0.4830533
carrer d'alonso cano / calle alonso cano,accesibilidad alta,,38.3723675,-0.4825035
carrer de la verge de monserrate / calle virgen de monserrate,accesibilidad alta,,38.369247,-0.497593
carrer del farmaceutic agatangelo soler / calle farmaceutico agatangelo soler,accesibilidad alta,,38.3749873,-0.4889756
plasa de les escoles / plaza de las escuelas,accesibilidad alta,,38.3758024,-0.4925542
tourist info,accesibilidad alta,,38.3438616,-0.4799467
carrer de granada / calle granada,accesibilidad alta,,38.3733521,-0.4883593
carrer de granada / calle granada,accesibilidad alta,,38.3733461,-0.4884025
carrer de granada / calle granada,accesibilidad alta,,38.3733572,-0.4883228
carrer del poeta pedro salinas / calle poeta pedro salinas,accesibilidad alta,,38.3681164,-0.4901894
carrer de la verge dels lliris / calle virgen de los lirios,accesibilidad alta,,38.3693897,-0.4981901
plenergy,accesibilidad alta,,38.3714114,-0.4577111
carrer de villa de chiva / calle villa de chiva,accesibilidad alta,,38.3719809,-0.4875906
avinguda de novelda / avenida de novelda,accesibilidad alta,,38.3696064,-0.4971488
carrer de l'escriptor damaso alonso / calle escritor damaso alonso,accesibilidad alta,,38.3694077,-0.4866717
carrefour express,accesibilidad alta,,38.3379451,-0.5004324
farmacia,accesibilidad alta,,38.360831,-0.4500242
avinguda del pintor gaston castello / avenida del pintor gaston castello,accesibilidad alta,,38.3772308,-0.4877972
avinguda del pintor gaston castello / avenida del pintor gaston castello,accesibilidad alta,,38.3772508,-0.4877284
avinguda del pintor gaston castello / avenida del pintor gaston castello,accesibilidad alta,,38.3772146,-0.4878525
instituto bernabeu,accesibilidad alta,,38.3653157,-0.4577547
instituto bernabeu,accesibilidad alta,,38.3653812,-0.4571575
carrer de sant pere poveda / calle san pedro poveda,accesibilidad alta,,38.3666306,-0.4890435
carrer de valdes leal / calle valdes leal,accesibilidad alta,,38.3747192,-0.4988546
carrer de valdes leal / calle valdes leal,accesibilidad alta,,38.3748103,-0.4988866
carrer del diputat joaquin fuster / calle diputado joaquin fuster,accesibilidad alta,,38.3709035,-0.4834529
carrer del diputat joaquin galant ruiz / calle diputado joaquin galant ruiz,accesibilidad alta,,38.3705255,-0.4835479
carrer de la serra de cavalls / calle sierra de cavalls,accesibilidad alta,,38.3701793,-0.4833589
carrer del diputat luis gamir casares / calle diputado luis gamir casares,accesibilidad alta,,38.3690347,-0.4846991
carrer del diputat joaquin galant ruiz / calle diputado joaquin galant ruiz,accesibilidad alta,,38.3690816,-0.4835619
avinguda de la baronia de polop / avenida baronia de polop,accesibilidad alta,,38.375731,-0.4984467
avinguda de la baronia de polop / avenida baronia de polop,accesibilidad alta,,38.3758091,-0.4984951
carrer del diputat juan antonio rodriguez marin / calle diputado juan antonio rodriguez marin,accesibilidad alta,,38.3692789,-0.4836242
carrer del diputat juan antonio rodriguez marin / calle diputado juan antonio rodriguez marin,accesibilidad alta,,38.3692748,-0.4836919
mercadona,accesibilidad alta,,38.3606606,-0.4901893
collegi d'educacio infantil i primaria san fernando,accesibilidad alta,,38.3550078,-0.4991938
parque del mar / parc de la mar,accesibilidad alta,,38.3347577,-0.4998531
polideportivo justo hidalgo ruiz,accesibilidad alta,,38.3691401,-0.4829114
alacant-estels,accesibilidad baja,,38.3464173,-0.4909849
alacant-estels,accesibilidad baja,,38.345629,-0.490418
mercado,accesibilidad baja,,38.3480099,-0.48468
alacant-estels,accesibilidad baja,,38.3458079,-0.4911904
alacant-estels,accesibilidad baja,,38.346196,-0.4901808
elan cabaret,accesibilidad baja,,38.3500069,-0.4869255
cerveceria jorge,accesibilidad baja,,38.3626074,-0.4897097
asador pollos la ceramica,accesibilidad baja,,38.3624918,-0.4896287
la abadia,accesibilidad baja,,38.3622491,-0.4894648
cafe gadea,accesibilidad baja,,38.3424795,-0.487882
los hermanos,accesibilidad baja,,38.3410613,-0.5148617
gascunyana,accesibilidad baja,,38.3749858,-0.4880959
bellea del foc,accesibilidad baja,,38.3676741,-0.4712857
ies jaime ii,accesibilidad baja,,38.3622816,-0.470554
ies jaime ii,accesibilidad baja,,38.3620548,-0.4702567
plaza castalla,accesibilidad baja,,38.3696222,-0.4711409
parque el palmeral,accesibilidad baja,,38.3194069,-0.5140261
livanti gelato di sicilia,accesibilidad baja,,38.3451096,-0.4826072
vivero de peces romano,accesibilidad baja,accesibilidad baja,38.3620046,-0.4411195
refugio guerra civil seneca,accesibilidad baja,,38.3413023,-0.490676
el mirador,accesibilidad baja,,38.3485199,-0.4750497
bodhigreen,accesibilidad baja,,38.3426215,-0.4863141
como una estrella,accesibilidad baja,,38.3432547,-0.4944454
treasure media,accesibilidad baja,,38.3478868,-0.4757336
bitbase,accesibilidad baja,,38.3429753,-0.4882036
sabor marva,accesibilidad baja,,38.3482892,-0.4926235
casa susi,accesibilidad baja,,38.362866,-0.483442
vincent's,accesibilidad baja,,38.3442686,-0.4918454
gascunyana,accesibilidad baja,,38.3750141,-0.488103
consulado britanico,accesibilidad baja,,38.3457204,-0.4837505
svaps,accesibilidad baja,,38.3460037,-0.4880084
ciudad ibero romana de lucentum,accesibilidad baja,accesibilidad baja,38.3647421,-0.4388496
plasa del poble gitano / plaza del pueblo gitano,accesibilidad baja,,38.3583524,-0.4907421
senda del poeta,accesibilidad baja,,38.3486495,-0.5783577
senda del poeta,accesibilidad baja,,38.3461473,-0.588477
carrer d'indalecio prieto / calle indalecio prieto,accesibilidad baja,,38.3538357,-0.4751574
carrer del doctor claramunt / calle doctor claramunt,accesibilidad baja,,38.3750278,-0.4894616
carrer del doctor claramunt / calle doctor claramunt,accesibilidad baja,,38.3749318,-0.4894944
carrer de l'economista german bernacer / calle economista german bernacer,accesibilidad baja,,38.374898,-0.492966
carrer del bariton paco latorre / calle baritono paco latorre,accesibilidad baja,,38.3760326,-0.4822065
plasa de la cruz / plaza de la cruz,accesibilidad baja,,38.3761563,-0.4883255
plasa de la cruz / plaza de la cruz,accesibilidad baja,,38.3765054,-0.4894849
carrer de la maragda / calle esmeralda,accesibilidad baja,,38.3749889,-0.486863
carrer del bariton paco latorre / calle baritono paco latorre,accesibilidad baja,,38.3773192,-0.4836369
carrer de la turquesa / calle turquesa,accesibilidad baja,,38.3767603,-0.4850687
carrer del periodista francisco bas mingot / calle periodista francisco bas mingot,accesibilidad baja,,38.3746895,-0.4832079
avinguda ronda de melilla / avenida ronda de melilla,accesibilidad baja,,38.3739446,-0.4833525
carrer d'alonso cano / calle alonso cano,accesibilidad baja,,38.3724422,-0.4828923
carrer benifato / calle benifato,accesibilidad baja,,38.3734839,-0.482561
carrer de mariano benlliure / calle mariano benlliure,accesibilidad baja,,38.3779592,-0.5018755
avinguda de novelda / avenida de novelda,accesibilidad baja,,38.3783154,-0.5007161
el refugio,accesibilidad baja,,38.3408195,-0.4907056
carrer de xativa / calle jativa,accesibilidad baja,,38.3791764,-0.5018791
carrer de bolulla / calle bolulla,accesibilidad baja,,38.3770982,-0.50069
carrer de camoens / calle camoens,accesibilidad baja,,38.3536337,-0.475029
la barraca,accesibilidad baja,,38.5655963,-0.1672852
bazar la rambla,accesibilidad media,,38.3476243,-0.4843798
sotelo 10,accesibilidad media,,38.3436028,-0.4886034
mercado-el sabio,accesibilidad media,,38.3475725,-0.4866852
"plaza de espanya, 4",accesibilidad media,,38.3516599,-0.4853625
pintor amoros,accesibilidad media,,38.3706336,-0.4715152
pintor amoros,accesibilidad media,,38.3706417,-0.471617
mercado-el sabio,accesibilidad media,,38.3473787,-0.4872058
cristobal pardo,accesibilidad media,,38.3629519,-0.4722109
cristobal pardo,accesibilidad media,,38.3627907,-0.4720502
mercado-el sabio,accesibilidad media,,38.3474287,-0.4870733
la florida,accesibilidad media,,38.3416548,-0.5139434
el dragon escamado,accesibilidad media,,38.351009,-0.4883346
estacion-salamanca,accesibilidad media,,38.3440763,-0.49474
plaza de espanya-panteon de quijano,accesibilidad media,,38.3514,-0.4847416
falafelmania vegetariano oriental,accesibilidad media,,38.3323606,-0.5089442
kontiki alicante-tabarca,accesibilidad media,,38.3420311,-0.485014
aires burger bar,accesibilidad media,,38.347669,-0.4850115
camino de sabores,accesibilidad media,,38.3474333,-0.4823879
taberna la vendimia,accesibilidad media,,38.3609616,-0.4895266
restaurante goyo,accesibilidad media,,38.34005,-0.4900517
maldita gloria!,accesibilidad media,,38.348186,-0.4883157
europhone,accesibilidad media,,38.3611214,-0.4923711
universitat d'alacant / universidad de alicante (campus de sant vicent),accesibilidad media,,38.3849307,-0.5141978
polideportivo municipal stadium,accesibilidad media,,38.3611393,-0.4245176
plasa dels estels / plaza de los luceros,accesibilidad media,,38.3460049,-0.490678
club deportivo montemar,accesibilidad media,,38.3567191,-0.4756423
facultat de farmacia - universitat miguel hernandez d'elx,accesibilidad media,accesibilidad baja,38.3872224,-0.4354765
smile & co hostal,accesibilidad media,,38.3429579,-0.4867299
platja d'aigua amarga,accesibilidad media,,38.299863,-0.5189107
doggy beach,accesibilidad media,,38.2987065,-0.5194136
carrer del comte pedro franqueza / calle conde pedro franqueza,accesibilidad media,,38.3881722,-0.4852195
plasa de la cruz / plaza de la cruz,accesibilidad media,,38.3759326,-0.4893697
plasa de la cruz / plaza de la cruz,accesibilidad media,,38.3759838,-0.4893711
plasa de la cruz / plaza de la cruz,accesibilidad media,,38.3760068,-0.4893713
carrer de la perla / calle perla,accesibilidad media,,38.3746066,-0.4864594
avinguda dels exercits espanyols / avenida de los ejercitos espanyoles,accesibilidad media,,38.3696196,-0.4826573
carrer de la gemma / calle gema,accesibilidad media,,38.3738587,-0.4861802
carrer de la gemma / calle gema,accesibilidad media,,38.3738819,-0.4861817
carrer de la gemma / calle gema,accesibilidad media,,38.3739096,-0.4861834
carrer benifato / calle benifato,accesibilidad media,,38.3727834,-0.482877
carrer del periodista francisco bas mingot / calle periodista francisco bas mingot,accesibilidad media,,38.3744243,-0.4838955
carrer d'alonso cano / calle alonso cano,accesibilidad media,,38.3725206,-0.4829216
carrer benifato / calle benifato,accesibilidad media,,38.3734089,-0.4825953
carrer benifato / calle benifato,accesibilidad media,,38.3732775,-0.4826545
carrer benifato / calle benifato,accesibilidad media,,38.3731246,-0.4827233
carrer del doctor claramunt / calle doctor claramunt,destination,,38.3757517,-0.4895955
