nombre,accesibilidad_total,e4_servicios_higienicos,lat,lon,direccion,barrio,ciudad,codigo_postal,tipo_lugar
sergio cardell,4,0,38.3647338,-0.4323103,glorieta de l'esportista sergio cardell / glorieta del deportista sergio cardell,albufereta,alacant / alicante,03540,tram_stop
mirador del castillo,4,0,38.3481957,-0.4795226,tunel de acceso ascensor al castillo de santa barbara,sant antoni,alacant / alicante,03002,viewpoint
valencia once,4,4,38.3525297,-0.4838708,carrer de valencia / calle valencia,sant antoni,alacant / alicante,03004,restaurant
mercadona,4,0,38.3617135,-0.4802513,carrer de rodrigo caro / calle rodrigo caro,les carolines altes,alacant / alicante,03012,supermarket
torre mauro,4,0,38.3660534,-0.4308318,avinguda d'ansaldo / avenida de ansaldo,albufereta,alacant / alicante,03540,restaurant
correos,4,0,38.3656993,-0.4311114,avinguda d'ansaldo / avenida de ansaldo,albufereta,alacant / alicante,03540,post_office
primark,4,0,38.3672564,-0.4696366,carrer de jose garcia selles / calle jose garcia selles,el garbinet,alacant / alicante,03015,clothes
nacara,4,0,38.3665208,-0.4290554,avinguda de l'historiador vicente ramos / avenida del historiador vicente ramos,albufereta,alacant / alicante,03540,cafe
restaurante tailandes sabatika,4,0,38.3663084,-0.4304591,avinguda de l'historiador vicente ramos / avenida del historiador vicente ramos,albufereta,alacant / alicante,03540,restaurant
restaurante darsena,4,0,38.338395,-0.4869017,avinguda de perfecto palacio de la fuente / avenida perfecto palacio de la fuente,raval de sant francesc,alacant / alicante,03003,restaurant
hospital,4,0,38.3643274,-0.4838579,avinguda del periodista rodolfo salazar / avenida del periodista rodolfo salazar,sidi ifni - nou alacant,alacant / alicante,03014,tram_stop
juan garcia ortiz,4,0,38.3588079,-0.4727597,avinguda padre espla / avenida padre espla,el pla del bon repos,alacant / alicante,03015,pharmacy
centro de salud ciudad jardin,4,4,38.3754255,-0.4949514,carrer del clot / calle clot,el clot,alacant / alicante,03011,clinic
holanda,4,0,38.3681319,-0.4198137,glorieta del fotoperiodista perfecto arjones,desconocido,alacant / alicante,03540,tram_stop
canela,4,0,38.3662597,-0.4304644,avinguda de l'historiador vicente ramos / avenida del historiador vicente ramos,albufereta,alacant / alicante,03540,cafe
bbva,4,0,38.3639818,-0.4314956,carrer de pedro ferrandiz / calle pedro ferrandiz,albufereta,alacant / alicante,03540,bank
la masa de tomasa,4,2,38.3478149,-0.4845617,avinguda alfons el savi / avenida alfonso el sabio,nostra senyora de gracia,alacant / alicante,03202,bakery
mercado,4,2,38.3483516,-0.4847737,carrer de sant vicent / calle san vicente,sant antoni,alacant / alicante,03004,subway_entrance
marq-castillo,4,0,38.3519992,-0.4764427,avinguda de vazquez de mella / avenida vazquez de mella,sant antoni,alacant / alicante,03013,subway_entrance
eleuterio maisonnave,4,0,38.3435353,-0.4889015,placa de calvo sotelo / plaza de calvo sotelo,nostra senyora de gracia,alacant / alicante,03003,artwork
nh,4,0,38.3364538,-0.50713,carrer del club de futbol hercules / calle club de futbol hercules,la florida baixa,alacant / alicante,03007,hotel
la lonja,4,0,38.349374,-0.4867714,carrer capitan segarra / calle capitan segarra,nostra senyora de gracia,alacant / alicante,03004,restaurant
mercado-el sabio,4,0,38.3472844,-0.4869425,avinguda alfons el savi / avenida alfonso el sabio,nostra senyora de gracia,alacant / alicante,03001,bus_stop
rambla-portal de elche,4,0,38.3446147,-0.4834853,la rambla / la rambla,raval de sant francesc,alacant / alicante,03001,bus_stop
rambla-san jose,4,0,38.3451765,-0.4836064,la rambla / la rambla,raval de sant francesc,alacant / alicante,03001,bus_stop
c.a. montemar,4,0,38.3571008,-0.4764069,avinguda padre espla / avenida padre espla,el pla del bon repos,alacant / alicante,03013,bus_stop
avenida de denia - canonigo penalva,4,0,38.3526538,-0.4728363,carrer del bisbe victorio oliver / calle obispo victorio oliver,vistahermosa,alacant / alicante,03013,bus_stop
gaston castello (tram),4,0,38.3733039,-0.4870928,carrer del canonge giner / calle canonigo giner,verge del remei,alacant / alicante,03112,bus_stop
calderon-la lonja,4,0,38.3499284,-0.4857024,carrer de calderon de la barca / calle calderon de la barca,raval de sant antoni,alacant / alicante,03004,bus_stop
explanada de espanya,4,0,38.3436603,-0.4827888,la rambla / la rambla,raval de sant francesc,alacant / alicante,03001,bus_stop
padre espla-vidal,4,0,38.3562851,-0.4782265,avinguda padre espla / avenida padre espla,les carolines baixes,alacant / alicante,03013,bus_stop
palmeretes,4,0,38.3553339,-0.4824524,carrer del poeta zorrilla / calle poeta zorrilla,les carolines baixes,alacant / alicante,03012,bus_stop
pio xii,4,0,38.355832,-0.4799831,carrer de sant mateu / calle san mateo,les carolines baixes,alacant / alicante,03013,bus_stop
misericordia,4,0,38.3520973,-0.4835943,placa de l'hospital vell de san anton / plaza del hospital viejo san anton,sant antoni,alacant / alicante,03004,bus_stop
castello-esmeralda,4,0,38.3747007,-0.4871262,avinguda del pintor gaston castello / avenida del pintor gaston castello,colonia requena,alacant / alicante,03112,bus_stop
c.p. lucentum,4,0,38.3748133,-0.4932411,carrer de l'economista german bernacer / calle economista german bernacer,ciutat jardi,alacant / alicante,03112,tertiary
alacant-estels,4,0,38.3459294,-0.4908702,placa dels estels / plaza de los luceros,nostra senyora de gracia,alacant / alicante,03003,subway_entrance
la olivera,4,0,38.3579082,-0.4747783,avinguda padre espla / avenida padre espla,el pla del bon repos,alacant / alicante,03013,bus_stop
bulevar del pla (tram),4,0,38.3587963,-0.4724778,avinguda padre espla / avenida padre espla,el pla del bon repos,alacant / alicante,03015,bus_stop
av. naciones,4,0,38.3623141,-0.4203368,avinguda goleta / avenida de la goleta,entreplatges,alacant / alicante,03540,tram_stop
v. reyes,4,0,38.3648024,-0.4720701,carrer del metge vicente reyes / calle medico vicente reyes,el garbinet,alacant / alicante,03015,bus_stop
c.c. gran via,4,0,38.3656229,-0.4712372,placa de l'alcalde agatangelo soler / plaza alcalde agatangelo soler,el garbinet,alacant / alicante,03015,bus_stop
cafeteria mare nostrum,4,0,38.3444062,-0.4956106,carrer de rigoberto ferrer / calle rigoberto ferrer,alipark,alacant / alicante,03003,cafe
tim hortons,4,0,38.3444617,-0.4958563,carrer de rigoberto ferrer / calle rigoberto ferrer,alipark,alacant / alicante,03003,cafe
garbinet,4,0,38.3624308,-0.4783146,avinguda del periodista rodolfo salazar / avenida del periodista rodolfo salazar,les carolines altes,alacant / alicante,03015,tram_stop
gloria ferez,4,0,38.3651713,-0.4970922,carrer diagonal / calle diagonal,la tombola,alacant / alicante,03009,hairdresser
soda bar,4,0,38.3465326,-0.4862873,carrer del metge pascual perez / calle medico pascual perez,nostra senyora de gracia,alacant / alicante,03001,bar
casino sportium,4,0,38.3623034,-0.4874003,avinguda del pintor baeza / avenida pintor baeza,altossano,alacant / alicante,03014,casino
europa,4,0,38.3367437,-0.5070558,carrer del club de futbol hercules / calle club de futbol hercules,la florida baixa,alacant / alicante,03007,parking
hostal les monges palace,4,0,38.3458972,-0.4815316,carrer de les monges / calle de las monjas,centre historic,alacant / alicante,03002,hostel
fixphone,4,0,38.3677022,-0.4262222,avinguda de l'historiador vicente ramos / avenida del historiador vicente ramos,albufereta,alacant / alicante,03540,mobile_phone
bulevar del pla,4,0,38.359949,-0.4720944,avinguda del periodista rodolfo salazar / avenida del periodista rodolfo salazar,barri obrer,alacant / alicante,03015,tram_stop
pintor gaston castello,4,0,38.3739213,-0.4871507,avinguda del pintor gaston castello / avenida del pintor gaston castello,colonia requena,alacant / alicante,03112,tram_stop
la isleta,4,0,38.3628861,-0.4470381,avinguda de la condomina / avenida de la condomina,albufereta,alacant / alicante,03016,tram_stop
bar lucy,4,0,38.3480984,-0.5104992,carrer d'aldebaran / calle aldebaran,la florida alta,alacant / alicante,03007,bar
cafeteria jijona babel,4,0,38.341069,-0.5064049,carrer de pardo jimeno / calle pardo jimeno,la florida baixa,alacant / alicante,03007,cafe
optica nueva vision,4,0,38.3511071,-0.4854794,carrer del pare mariana / calle padre mariana,raval de sant antoni,alacant / alicante,03004,optician
supercor,4,0,38.3479677,-0.4845536,avinguda alfons el savi / avenida alfonso el sabio,nostra senyora de gracia,alacant / alicante,03004,supermarket
ascensor al castillo de santa barbara,4,0,38.3467887,-0.4769547,tunel de acceso ascensor al castillo de santa barbara,sant antoni,alacant / alicante,03002,footway
telepizza,4,0,38.3445308,-0.5094853,avinguda d'oriola / avenida de orihuela,la florida baixa,alacant / alicante,03007,fast_food
san gabriel-cercanias,4,0,38.3290672,-0.5091648,avinguda d'elx / avenida de elche,el palmeral,alacant / alicante,03007,bus_stop
luceros,4,0,38.3459859,-0.4905968,placa dels estels / plaza de los luceros,nostra senyora de gracia,alacant / alicante,03003,tram_stop
parque del mar,4,0,38.3325707,-0.5061936,avinguda d'elx / avenida de elche,el palmeral,alacant / alicante,03007,bus_stop
alcampo,4,0,38.3547252,-0.4713733,avinguda de denia / avenida de denia,vistahermosa,alacant / alicante,03016,supermarket
pizzeria popeye,4,0,38.37011,-0.4144491,avinguda de santander / avenida de santander,la platja de sant joan,alacant / alicante,03540,restaurant
farmacia velero blanco,4,0,38.384647,-0.4122218,carrer de la solfista concepcion rubio / calle solfista concepcion rubio,desconocido,alacant / alicante,03540,pharmacy
disfruta zumos naturales,4,0,38.3493091,-0.4884099,placa del music oscar tordera inesta / plaza del musico oscar tordera inesta,nostra senyora de gracia,alacant / alicante,03004,fast_food
the good burger,4,0,38.3441014,-0.4837338,placa del portal d'elx / plaza portal de elche,raval de sant francesc,alacant / alicante,03001,fast_food
coffee nutz,4,0,38.3475316,-0.4845614,la rambla / la rambla,raval de sant francesc,alacant / alicante,03001,cafe
representantes,4,0,38.3523192,-0.4862858,avinguda de l'alcalde alfonso de rojas / avenida del alcalde alfonso de rojas,raval de sant antoni,alacant / alicante,03004,bus_stop
rambla mendez nunyez 4-6,4,0,38.3441059,-0.4830176,la rambla / la rambla,raval de sant francesc,alacant / alicante,03001,bus_stop
las piramides,4,0,38.3591127,-0.4821192,carrer de guardamar / calle guardamar,les carolines altes,alacant / alicante,03012,restaurant
i2e (ingenieria informatica empresarial),4,0,38.3451668,-0.5068288,carrer d'auso y monzo / calle auso y monzo,sant ferran - princesa mercedes,alacant / alicante,03006,it
moeve,4,0,38.3856792,-0.4498206,avinguda de denia / avenida de denia,orgegia,alacant / alicante,03559,fuel
tedi,4,0,38.3404801,-0.490889,carrer d'italia / calle italia,raval de sant francesc,alacant / alicante,03003,variety_store
alohers coffee surf,4,0,38.3629488,-0.4115241,carrer de sicilia / calle sicilia,desconocido,alacant / alicante,03540,fast_food
always,4,0,38.3405526,-0.490716,carrer d'italia / calle italia,raval de sant francesc,alacant / alicante,03003,supermarket
denia - cc plaza mar 2,4,0,38.3532276,-0.4735168,avinguda de denia / avenida de denia,vistahermosa,alacant / alicante,03013,bus_stop
denia - canonigo penalva ii,4,0,38.3524864,-0.473603,carrer del canonge manuel penalva / calle canonigo manuel penalva,sangueta,alacant / alicante,03013,bus_stop
euipo-elche,4,0,38.3125598,-0.5164248,avinguda d'elx / avenida de elche,alicante hills,alacant / alicante,03008,bus_stop
chiringuito rompeolas,4,0,38.3462433,-0.4767517,passeig de gomiz / paseo de gomiz,vistahermosa,alacant / alicante,03002,restaurant
sip and wonder,4,0,38.3476979,-0.4874669,carrer del poeta campos vassallo / calle poeta campos vassallo,nostra senyora de gracia,alacant / alicante,03004,cafe
udaco,4,0,38.3482511,-0.4753267,carrer de la mare de deu del socors / calle virgen del socorro,sant roc,alacant / alicante,03002,convenience
wen zhou shang chang,4,0,38.3412352,-0.4892395,carrer d'italia / calle italia,raval de sant francesc,alacant / alicante,03003,supermarket
palmitas,4,4,38.3441689,-0.4815666,passeig de l'esplanada d'espanya / paseo de la explanada de espana,centre historic,alacant / alicante,03001,restaurant
federopticos lledo - jornet,4,0,38.3585641,-0.4781891,carrer de sant mateu / calle san mateo,les carolines baixes,alacant / alicante,03012,optician
suma gestion tributaria,4,0,38.3432968,-0.5097687,carrer de l'astronom comas sola / calle astronomo comas sola,la florida baixa,alacant / alicante,03007,government
cash quality,4,0,38.376372,-0.5060028,carrer de benidoleig / calle benidoleig,la divina pastora,alacant / alicante,03011,supermarket
la cocina del buen comer,4,0,38.3418532,-0.4891067,carrer d'alemania / calle alemania,nostra senyora de gracia,alacant / alicante,03003,restaurant
lavanderia autoservicio flor de len,4,0,38.3433554,-0.5141718,carrer d'ana navarro / calle ana navarro,la florida baixa,alacant / alicante,03007,laundry
joyeria marga mira,4,0,38.3443873,-0.4918548,carrer del general lacy / calle general lacy,nostra senyora de gracia,alacant / alicante,03003,jewelry
talleres d&d eurotaller,4,0,38.3383915,-0.5197594,carrer de la rosa dels vents / calle rosa de los vientos,ciutat d'assis,alacant / alicante,03008,car_repair
mg electricidad,4,0,38.3634421,-0.4935631,carrer de jose reus garcia / calle jose reus garcia,els angels,alacant / alicante,03010,electrician
cim formacion alicante,4,0,38.3488762,-0.4914931,carrer del mestre breton / calle maestro breton,nostra senyora de gracia,alacant / alicante,03004,college
marel mujer,4,0,38.3450531,-0.4887736,carrer del teatre / calle del teatro,nostra senyora de gracia,alacant / alicante,03001,clothes
pc box,4,0,38.34494,-0.4886938,carrer del teatre / calle del teatro,nostra senyora de gracia,alacant / alicante,03001,computer
ulanka,4,0,38.343408,-0.4893328,avenida de maisonnave / avinguda de maisonnave,nostra senyora de gracia,alacant / alicante,03003,shoes
punto roma,4,0,38.3434217,-0.4892289,avenida de maisonnave / avinguda de maisonnave,nostra senyora de gracia,alacant / alicante,03003,clothes
farmacia del teatro,4,0,38.3456448,-0.486491,carrer del teatre / calle del teatro,nostra senyora de gracia,alacant / alicante,03001,pharmacy
urgencies,4,0,38.3527883,-0.4758436,carrer de celia valls / calle celia valls,sant roc,alacant / alicante,03013,emergency_ward_entrance
hospital de dia,4,0,38.3527772,-0.4764815,carrer de celia valls / calle celia valls,sant roc,alacant / alicante,03013,emergency_ward_entrance
radiologia,4,0,38.3523711,-0.4757895,carrer de celia valls / calle celia valls,sant roc,alacant / alicante,03013,emergency_ward_entrance
radioterapia,4,0,38.3524669,-0.4762525,carrer de celia valls / calle celia valls,sant roc,alacant / alicante,03013,emergency_ward_entrance
consultes externes,4,0,38.3642271,-0.4856023,carrer del mestre alonso / calle maestro alonso,les carolines altes,alacant / alicante,03012,hospital
once,4,0,38.3637914,-0.4845753,carrer del mestre alonso / calle maestro alonso,les carolines altes,alacant / alicante,03012,lottery
alacant terminal,4,0,38.3449804,-0.496061,carrer de bono guarner / calle bono guarner,nostra senyora de gracia,alacant / alicante,03003,station
dua clinic,4,0,38.3701775,-0.4144339,avinguda de santander / avenida de santander,la platja de sant joan,alacant / alicante,03540,hospital
aromas artesanales,4,0,38.3545628,-0.4717984,avinguda de denia / avenida de denia,vistahermosa,alacant / alicante,03016,perfumery
r. altamira,4,0,38.3443553,-0.4828569,carrer de rafael altamira / calle rafael altamira,centre historic,alacant / alicante,03001,bus_stop
villafranqueza-iglesia,4,0,38.3866462,-0.491036,carrer del music jose torregrosa / calle musico jose torregrosa,el palamo,alacant / alicante,03112,bus_stop
carrefour express,4,0,38.3857389,-0.4498632,carrer de la llar provincial antonio fernandez valenzuela / calle hogar provincial antonio fernandez valenzuela,orgegia,alacant / alicante,03559,convenience
kfc,4,0,38.3712826,-0.4572116,calle vistahermosa provisional 10,vistahermosa norte,alacant / alicante,03016,fast_food
cafetea,4,0,38.3595678,-0.4831337,carrer del pinos / calle pinoso,les carolines altes,alacant / alicante,03012,cafe
mileljos,4,2,38.3416311,-0.4923839,carrer dels reis catolics / calle reyes catolicos,nostra senyora de gracia,alacant / alicante,03003,fast_food
akraclima instalaciones aire acondicionado,4,0,38.349046,-0.4745403,carrer de la mare de deu del socors / calle virgen del socorro,sangueta,alacant / alicante,03002,appliance
mussa beauty salon,4,0,38.3668814,-0.4262453,avinguda de l'historiador vicente ramos / avenida del historiador vicente ramos,albufereta,alacant / alicante,03540,beauty
sukiya,4,4,38.3484319,-0.487625,carrer del poeta quintana / calle poeta quintana,nostra senyora de gracia,alacant / alicante,03001,restaurant
suma,4,0,38.3469514,-0.4843385,carrer de saragossa / calle zaragoza,raval de sant francesc,alacant / alicante,03001,supermarket
boga sky bar,4,0,38.3648946,-0.4177233,avinguda de catalunya / avenida de cataluna,entreplatges,alacant / alicante,03540,bar
santa faz,4,0,38.3446548,-0.4830219,carrer major / calle mayor,centre historic,alacant / alicante,03001,cafe
oakberry asai,4,0,38.344732,-0.4821205,carrer de rafael altamira / calle rafael altamira,centre historic,alacant / alicante,03001,ice_cream
indian house,4,0,38.3419112,-0.4874218,avinguda del doctor gadea / avenida doctor gadea,nostra senyora de gracia,alacant / alicante,03001,restaurant
spar,4,0,38.3574482,-0.4824449,carrer de montero rios / calle montero rios,les carolines altes,alacant / alicante,03012,supermarket
taberna rincon de miguel 2,4,0,38.3571926,-0.4788917,carrer de sant mateu / calle san mateo,les carolines baixes,alacant / alicante,03013,restaurant
foster's hollywood,4,0,38.338368,-0.4864816,avinguda de perfecto palacio de la fuente / avenida perfecto palacio de la fuente,raval de sant francesc,alacant / alicante,03003,restaurant
go 99,4,0,38.3401184,-0.4899004,carrer de l'arquebisbe loaces / calle arzobispo loaces,raval de sant francesc,alacant / alicante,03003,supermarket
+copy,4,0,38.3594783,-0.4911098,carrer d'aureliano ibarra / calle aureliano ibarra,altossano,alacant / alicante,03010,copyshop
tepemok,4,0,38.3497067,-0.4878388,carrer de manuel anton / calle manuel anton,nostra senyora de gracia,alacant / alicante,03004,convenience
pepco,4,0,38.3748159,-0.5059183,carrer de benidoleig / calle benidoleig,la divina pastora,alacant / alicante,03011,clothes
umh - universitat miguel hernandez - campus de sant joan d'alacant,4,4,38.3885882,-0.4363055,avenida don santiago ramon y cajal,la santa fac,sant joan d'alacant,03559,clinic
castell de santa barbara,4,0,38.3490916,-0.4781771,tunel de acceso ascensor al castillo de santa barbara,sant antoni,alacant / alicante,03002,toilets
passeig de l'esplanada d'espanya / paseo de la explanada de espanya,4,0,38.3432153,-0.4832701,passeig de l'esplanada d'espanya / paseo de la explanada de espana,raval de sant francesc,alacant / alicante,03001,footway
seu universitaria ciutat d'alacant / sede universitaria ciudad de alicante,4,0,38.3416092,-0.487079,avinguda del doctor gadea / avenida doctor gadea,nostra senyora de gracia,alacant / alicante,03001,university
el corte ingles,4,0,38.3440222,-0.4898638,avinguda de federico soto / avenida de federico soto,nostra senyora de gracia,alacant / alicante,03003,toilets
passeig de l'escriptor joan fuster / paseo del escritor joan fuster,4,0,38.3318946,-0.5072735,avinguda d'elx / avenida de elche,el palmeral,alacant / alicante,03007,yes
plasa del papa joan pau ii / plaza del papa juan pablo ii,4,0,38.3534913,-0.5117808,placa del papa joan pau ii / plaza del papa juan pablo ii,joan pau ii / juan pablo ii,alacant / alicante,03006,residential
plasa de conchi rodriguez vicaria / plaza conchi rodriguez vicaria,4,0,38.375737,-0.4956985,carrer del clot / calle clot,el clot,alacant / alicante,03011,bench
centro de salud ciudad jardin / centre de salut ciutat jardi,4,4,38.3754246,-0.4949259,carrer del clot / calle clot,el clot,alacant / alicante,03011,clinic
plasa d'argel / plaza de argel,4,0,38.3743081,-0.4915204,carrer de valle inclan / calle valle inclan,verge del remei,alacant / alicante,03112,bandstand
plasa de l'esportista andres munyoz / plaza del deportista andres munyoz,4,0,38.3384951,-0.4926727,placa de l'esportista andres munoz / plaza del deportista andres munoz,raval de sant francesc,alacant / alicante,03003,playground
higienetodo,4,0,38.3400827,-0.5608254,carrer del ien / calle del yen,desconocido,alacant / alicante,03114,residential
cami del clot / camino del clot,4,0,38.3791964,-0.4998765,cami del clot / camino del clot,el clot,alacant / alicante,03011,unclassified
burger king,4,0,38.3653364,-0.4862979,carrer de colombia / calle colombia,altossano,alacant / alicante,03014,fast_food
estadio jose rico perez,4,0,38.3573816,-0.4926034,carrer de marco oliver / calle marco oliver,altossano,alacant / alicante,03009,stadium
pasarela acceso playa,4,0,38.3470854,-0.4761224,carrer de jovellanos / calle jovellanos,sant roc,alacant / alicante,03002,primary
piscina climatizada,4,0,38.3610735,-0.4243518,carrer de l'arpo / calle arpon,entreplatges,alacant / alicante,03540,sports_centre
policia local,4,0,38.3645207,-0.4100177,avinguda de napols / avenida de napoles,desconocido,alacant / alicante,03540,police
collegi d'educacio infantil i primaria san fernando,4,0,38.3552455,-0.4993587,carrer de ciudad real / calle ciudad real,poligon de sant blai,alacant / alicante,03005,school
hotel ac alicante,4,0,38.3386446,-0.4948575,carrer d'isabel la catolica / calle isabel la catolica,nostra senyora de gracia,alacant / alicante,03003,hotel
plasa de l'arquitecte miguel lopez / plaza del arquitecto miguel lopez,4,0,38.3380061,-0.4930059,placa de l'arquitecte miguel lopez / plaza del arquitecto miguel lopez,raval de sant francesc,alacant / alicante,03003,fountain
nostrum,4,0,38.3443064,-0.4890458,avinguda de federico soto / avenida de federico soto,nostra senyora de gracia,alacant / alicante,03001,house
casa alberola alicante curio collection by hilton,4,0,38.3422175,-0.4866396,carrer de canalejas / calle canalejas,raval de sant francesc,alacant / alicante,03001,hotel
panaderia bravo bolleria,4,0,38.3437017,-0.5110716,carrer d'asturies / calle asturias,la florida baixa,alacant / alicante,03007,bakery
maya,4,0,38.3518506,-0.4747021,carrer del canonge manuel penalva / calle canonigo manuel penalva,sangueta,alacant / alicante,03002,hotel
auditorio la concha,4,0,38.3428843,-0.4837883,passeig de l'esplanada d'espanya / paseo de la explanada de espana,raval de sant francesc,alacant / alicante,03001,bandstand
carrer del mestre rosillo / calle maestro rosillo,4,0,38.3757954,-0.4804278,carrer del mestre rosillo / calle maestro rosillo,joan xxiii,alacant / alicante,03014,footway
avinguda de la baronia de polop / avenida baronia de polop,4,0,38.3760441,-0.4946521,avinguda de la baronia de polop / avenida baronia de polop,el clot,alacant / alicante,03011,footway
carrer del clot / calle clot,4,0,38.3758656,-0.4960793,carrer del clot / calle clot,el clot,alacant / alicante,03011,footway
carrer de santa maria josefa / calle santa maria josefa,4,0,38.3751506,-0.4972851,carrer de santa maria josefa / calle santa maria josefa,ciutat jardi,alacant / alicante,03011,footway
carrer d'ortega y gasset / calle ortega y gasset,4,0,38.3746791,-0.4934706,carrer d'ortega y gasset / calle ortega y gasset,ciutat jardi,alacant / alicante,03011,footway
carrer de l'economista german bernacer / calle economista german bernacer,4,0,38.3750163,-0.4925827,carrer de l'economista german bernacer / calle economista german bernacer,ciutat jardi,alacant / alicante,03112,footway
carrer de parcent / calle parcent,4,0,38.3748775,-0.492562,carrer de parcent / calle parcent,ciutat jardi,alacant / alicante,03112,footway
plasa de la cruz / plaza de la cruz,4,0,38.3758794,-0.4893682,placa de la cruz / plaza de la cruz,colonia requena,alacant / alicante,03112,footway
carrer del pintor perez pizarro / calle pintor perez pizarro,4,0,38.374068,-0.4905933,carrer del pintor perez pizarro / calle pintor perez pizarro,verge del remei,alacant / alicante,03112,footway
carrer de l'advocat perez mirete / calle abogado perez mirete,4,0,38.3747128,-0.4919932,carrer de l'advocat perez mirete / calle abogado perez mirete,verge del remei,alacant / alicante,03112,footway
carrer del music alfosea / calle musico alfosea,4,0,38.3733974,-0.4895101,carrer del music alfosea / calle musico alfosea,verge del remei,alacant / alicante,03112,house
plasa del doctor gascunyana hernando / plaza del doctor gascunyana hernando,4,0,38.3750713,-0.4882798,placa del doctor gascunana hernando / plaza del doctor gascunana hernando,verge del remei,alacant / alicante,03112,footway
carrer del publicista jose tari / calle publicista jose tari,4,0,38.3740628,-0.4898657,carrer del publicista jose tari / calle publicista jose tari,verge del remei,alacant / alicante,03112,footway
carrer senyorita de trevelez / calle senyorita de trevelez,4,0,38.3747245,-0.4927805,carrer senorita de trevelez / calle senorita de trevelez,ciutat jardi,alacant / alicante,03112,residential
carrer del doctor claramunt / calle doctor claramunt,4,0,38.3748665,-0.4894186,carrer del doctor claramunt / calle doctor claramunt,verge del remei,alacant / alicante,03112,footway
carrer de la maragda / calle esmeralda,4,0,38.3750347,-0.4850952,carrer de la maragda / calle esmeralda,colonia requena,alacant / alicante,03112,footway
carrer del cronista figueras pacheco / calle cronista figueras pacheco,4,0,38.3726021,-0.4847432,carrer del cronista figueras pacheco / calle cronista figueras pacheco,colonia requena,alacant / alicante,03014,footway
carrer del safir / calle zafiro,4,0,38.3747129,-0.4864673,carrer del safir / calle zafiro,colonia requena,alacant / alicante,03112,footway
carrer de la perla / calle perla,4,0,38.3745354,-0.4864612,carrer de la perla / calle perla,colonia requena,alacant / alicante,03112,footway
carrer del farmaceutic agatangelo soler / calle farmaceutico agatangelo soler,4,0,38.375163,-0.4874047,carrer del farmaceutic agatangelo soler / calle farmaceutico agatangelo soler,colonia requena,alacant / alicante,03112,footway
carrer de valdes leal / calle valdes leal,4,0,38.3747639,-0.4988702,carrer de valdes leal / calle valdes leal,desconocido,alacant / alicante,03011,residential
carrer del capella planelles / calle cura planelles,4,0,38.3727938,-0.4979586,carrer del capella planelles / calle cura planelles,ciutat jardi,alacant / alicante,03011,residential
carrer del music torres climent / calle musico torres climent,4,0,38.3748713,-0.4920305,carrer del music torres climent / calle musico torres climent,ciutat jardi,alacant / alicante,03112,residential
plasa de la creu / plaza de la cruz,4,0,38.376449,-0.4880233,placa de la creu / plaza de la cruz,verge del remei,alacant / alicante,03112,footway
musico jose torregrosa 2,4,0,38.3867133,-0.4910545,carrer del music jose torregrosa / calle musico jose torregrosa,el palamo,alacant / alicante,03112,house
carrer del senador jose vicente mateo / calle senador jose vicente mateo,4,0,38.3705557,-0.4832639,carrer del senador jose vicente mateo / calle senador jose vicente mateo,quatre-centes vivendes,alacant / alicante,03014,residential
plasa d'ora / plaza de oran,4,0,38.3721156,-0.4851688,placa d'ora / plaza de oran,mare de deu del carme,alacant / alicante,03112,house
carrer de moncada / calle moncada,4,0,38.3720623,-0.4855992,carrer de moncada / calle moncada,mare de deu del carme,alacant / alicante,03112,house
avinguda del pintor gaston castello / avenida del pintor gaston castello,4,0,38.3754301,-0.4872937,avinguda del pintor gaston castello / avenida del pintor gaston castello,colonia requena,alacant / alicante,03112,footway
carrer del geograf rey pastor / calle geografo rey pastor,4,0,38.3723617,-0.4863679,carrer del geograf rey pastor / calle geografo rey pastor,colonia requena,alacant / alicante,03112,residential
carrer de la serra d'aitana / calle sierra de aitana,4,0,38.3721561,-0.4872184,carrer de la serra d'aitana / calle sierra de aitana,verge del remei,alacant / alicante,03112,footway
carrer de la serra cabeso d'or / calle sierra cabezo d'or,4,0,38.3719094,-0.487162,carrer de la serra cabeco d'or / calle sierra cabezo d'or,verge del remei,alacant / alicante,03112,footway
carrer de la serra maigmo / calle sierra maigmo,4,0,38.37345,-0.4876347,carrer de la serra maigmo / calle sierra maigmo,verge del remei,alacant / alicante,03112,house
carrer del quars / calle cuarzo,4,0,38.376836,-0.4871298,carrer del quars / calle cuarzo,verge del remei,alacant / alicante,03112,footway
carrer del traverti / calle travertino,4,0,38.3748806,-0.4868265,carrer del traverti / calle travertino,colonia requena,alacant / alicante,03112,footway
carrer del plati / calle platino,4,0,38.3740018,-0.4866687,carrer del plati / calle platino,colonia requena,alacant / alicante,03112,footway
carrer del diamant / calle diamante,4,0,38.3743523,-0.4866873,carrer del diamant / calle diamante,colonia requena,alacant / alicante,03112,footway
passatge poeta bartrina / pasaje poeta bartrina,4,0,38.3742734,-0.4827015,passatge poeta bartrina / pasaje poeta bartrina,joan xxiii,alacant / alicante,03014,footway
carrer de la plata / calle plata,4,0,38.3741754,-0.4866775,carrer de la plata / calle plata,colonia requena,alacant / alicante,03112,footway
carrer del periodista francisco bas mingot / calle periodista francisco bas mingot,4,0,38.3747235,-0.4797889,carrer del periodista francisco bas mingot / calle periodista francisco bas mingot,joan xxiii,alacant / alicante,03014,footway
carrer salvador allende / calle salvador allende,4,0,38.3766195,-0.4788499,carrer salvador allende / calle salvador allende,joan xxiii,alacant / alicante,03014,footway
carrer de vicente alexandre / calle vicente alexandre,4,0,38.3696489,-0.4923918,carrer de vicente alexandre / calle vicente alexandre,benissaudet,alacant / alicante,03112,footway
carrer del canonge giner / calle canonigo giner,4,0,38.3732927,-0.4872887,carrer del canonge giner / calle canonigo giner,verge del remei,alacant / alicante,03112,house
carrer de benejusser / calle benejuzar,4,0,38.3693093,-0.4824523,avinguda dels exercits espanyols / avenida de los ejercitos espanoles,quatre-centes vivendes,alacant / alicante,03014,sports_centre
carrer del diputat juan antonio rodriguez marin / calle diputado juan antonio rodriguez marin,4,0,38.3692435,-0.4842154,carrer del diputat juan antonio rodriguez marin / calle diputado juan antonio rodriguez marin,mare de deu del carme,alacant / alicante,03014,residential
carrer del diputat antonio garcia miralles / calle diputado antonio garcia miralles,4,0,38.3688688,-0.4841132,carrer del diputat antonio garcia miralles / calle diputado antonio garcia miralles,mare de deu del carme,alacant / alicante,03014,footway
carrer agustin jimenez navarlaz / calle agustin jimenez navarlaz,4,0,38.3660088,-0.4895822,carrer d'agustin jimenez navarlaz / calle agustin jimenez navarlaz,benissaudet,alacant / alicante,03009,parking
carrer de sant pere poveda / calle san pedro poveda,4,0,38.3664069,-0.489956,carrer de sant pere poveda / calle san pedro poveda,benissaudet,alacant / alicante,03009,footway
carrer d'alcala galiano / calle alcala galiano,4,0,38.3573095,-0.4842858,carrer d'alcala galiano / calle alcala galiano,campoamor,alacant / alicante,03012,footway
carrer de la turquesa / calle turquesa,4,0,38.377256,-0.4843664,carrer de la turquesa / calle turquesa,joan xxiii,alacant / alicante,03112,footway
calle geografo rey pastor / carrer del geograf rey pastor,4,0,38.372354,-0.4859461,carrer del geograf rey pastor / calle geografo rey pastor,mare de deu del carme,alacant / alicante,03112,residential
avinguda ronda de melilla / avenida ronda de melilla,4,0,38.3736418,-0.4829173,avinguda ronda de melilla / avenida ronda de melilla,joan xxiii,alacant / alicante,03014,footway
carrer periodista francisco bas mingot / calle periodista francisco bas mingot,4,0,38.3746799,-0.4829418,carrer periodista francisco bas mingot / calle periodista francisco bas mingot,joan xxiii,alacant / alicante,03112,footway
carrer sierra montgo / calle sierra montgo,4,0,38.3716531,-0.488556,carrer sierra montgo / calle sierra montgo,verge del remei,alacant / alicante,03112,house
carrer d'alonso cano / calle alonso cano,4,0,38.3723611,-0.4825753,carrer d'alonso cano / calle alonso cano,quatre-centes vivendes,alacant / alicante,03014,footway
carrer de la verge de monserrate / calle virgen de monserrate,4,0,38.369247,-0.497593,carrer de la verge de monserrate / calle virgen de monserrate,la tombola,alacant / alicante,03011,footway
plasa de les escoles / plaza de las escuelas,4,0,38.3758024,-0.4925542,placa de les escoles / plaza de las escuelas,verge del remei,alacant / alicante,03112,footway
tourist info,4,0,38.3438616,-0.4799467,passeig del port / paseo del puerto,centre historic,alacant / alicante,03002,office
carrer de granada / calle granada,4,0,38.3733521,-0.4883593,carrer de granada / calle granada,verge del remei,alacant / alicante,03112,house
carrer del poeta pedro salinas / calle poeta pedro salinas,4,0,38.3681164,-0.4901894,carrer del poeta pedro salinas / calle poeta pedro salinas,benissaudet,alacant / alicante,03112,footway
carrer de la verge dels lliris / calle virgen de los lirios,4,0,38.3693897,-0.4981901,carrer de la verge dels lliris / calle virgen de los lirios,la tombola,alacant / alicante,03011,footway
plenergy,4,0,38.3714114,-0.4577111,calle vistahermosa provisional 10,vistahermosa norte,alacant / alicante,03016,charging_station
carrer de villa de chiva / calle villa de chiva,4,0,38.3719809,-0.4875906,carrer de villa de chiva / calle villa de chiva,verge del remei,alacant / alicante,03112,footway
avinguda de novelda / avenida de novelda,4,0,38.3696064,-0.4971488,avinguda de novelda / avenida de novelda,la tombola,alacant / alicante,03011,secondary
carrer de l'escriptor damaso alonso / calle escritor damaso alonso,4,0,38.3694077,-0.4866717,carrer de l'escriptor damaso alonso / calle escritor damaso alonso,mare de deu del carme,alacant / alicante,03014,footway
farmacia,4,0,38.360831,-0.4500242,carrer del sol naixent / calle sol naciente,albufereta,alacant / alicante,03016,pharmacy
instituto bernabeu,4,0,38.3653157,-0.4577547,carrer de fernando alfaya / calle fernando alfaya,vistahermosa,alacant / alicante,03016,clinic
carrer del diputat joaquin fuster / calle diputado joaquin fuster,4,0,38.3709035,-0.4834529,carrer del diputat joaquin fuster / calle diputado joaquin fuster,mare de deu del carme,alacant / alicante,03014,footway
carrer del diputat joaquin galant ruiz / calle diputado joaquin galant ruiz,4,0,38.3705255,-0.4835479,carrer del diputat joaquin fuster / calle diputado joaquin fuster,mare de deu del carme,alacant / alicante,03014,police
carrer de la serra de cavalls / calle sierra de cavalls,4,0,38.3701793,-0.4833589,carrer de la serra cavalls / calle sierra de cavalls,quatre-centes vivendes,alacant / alicante,03014,residential
carrer del diputat luis gamir casares / calle diputado luis gamir casares,4,0,38.3690347,-0.4846991,carrer del diputat luis gamir casares / calle diputado luis gamir casares,mare de deu del carme,alacant / alicante,03014,residential
parque del mar / parc de la mar,4,0,38.3347577,-0.4998531,desconocido,division azul,alacant / alicante,03007,residential
polideportivo justo hidalgo ruiz,4,0,38.3691401,-0.4829114,carrer del diputat joaquin galant ruiz / calle diputado joaquin galant ruiz,mare de deu del carme,alacant / alicante,03112,house
elan cabaret,2,0,38.3500069,-0.4869255,carrer capitan segarra / calle capitan segarra,nostra senyora de gracia,alacant / alicante,03004,pub
cerveceria jorge,2,0,38.3626074,-0.4897097,carrer de martin luther king / calle martin luther king,altossano,alacant / alicante,03010,bar
asador pollos la ceramica,2,0,38.3624918,-0.4896287,carrer de martin luther king / calle martin luther king,altossano,alacant / alicante,03010,fast_food
la abadia,2,0,38.3622491,-0.4894648,carrer de martin luther king / calle martin luther king,altossano,alacant / alicante,03010,pub
cafe gadea,2,0,38.3424795,-0.487882,avinguda del doctor gadea / avenida doctor gadea,nostra senyora de gracia,alacant / alicante,03003,cafe
los hermanos,2,0,38.3410613,-0.5148617,carrer de lliber / calle lliber,la florida baixa,alacant / alicante,03007,cafe
gascunyana,2,0,38.3749858,-0.4880959,carrer del farmaceutic agatangelo soler / calle farmaceutico agatangelo soler,verge del remei,alacant / alicante,03112,tertiary
bellea del foc,2,0,38.3676741,-0.4712857,carrer de la bellea del foc / calle de la bellea del foc,ciutat elegida,alacant / alicante,03015,bus_stop
ies jaime ii,2,0,38.3622816,-0.470554,carrer del doctor cristobal pardo / calle doctor cristobal pardo,el garbinet,alacant / alicante,03015,bus_stop
plaza castalla,2,0,38.3696222,-0.4711409,placa de castalla / plaza de castalla,ciutat elegida,alacant / alicante,03015,bus_stop
parque el palmeral,2,0,38.3194069,-0.5140261,avinguda d'elx / avenida de elche,desconocido,alacant / alicante,03007,bus_stop
livanti gelato di sicilia,2,0,38.3451096,-0.4826072,carrer de munoz / calle munoz,centre historic,alacant / alicante,03002,ice_cream
vivero de peces romano,2,2,38.3620046,-0.4411195,avinguda de la condomina / avenida de la condomina,albufereta,alacant / alicante,03016,archaeological_site
refugio guerra civil seneca,2,0,38.3413023,-0.490676,carrer del pintor lorenzo casanova / calle pintor lorenzo casanova,nostra senyora de gracia,alacant / alicante,03003,attraction
el mirador,2,0,38.3485199,-0.4750497,carrer de la mare de deu del socors / calle virgen del socorro,sant roc,alacant / alicante,03002,cafe
bodhigreen,2,0,38.3426215,-0.4863141,carrer de lanuza / calle lanuza,raval de sant francesc,alacant / alicante,03001,restaurant
como una estrella,2,0,38.3432547,-0.4944454,glorieta de l'estrella / glorieta de la estrella,nostra senyora de gracia,alacant / alicante,03003,artwork
treasure media,2,0,38.3478868,-0.4757336,carrer de la mare de deu del socors / calle virgen del socorro,sant roc,alacant / alicante,03002,studio
bitbase,2,0,38.3429753,-0.4882036,avinguda del doctor gadea / avenida doctor gadea,nostra senyora de gracia,alacant / alicante,03001,bureau_de_change
sabor marva,2,0,38.3482892,-0.4926235,carrer del mestre marques / calle maestro marques,nostra senyora de gracia,alacant / alicante,03003,cafe
casa susi,2,0,38.362866,-0.483442,carrer del doctor buades / calle doctor buades,les carolines altes,alacant / alicante,03012,convenience
vincent's,2,0,38.3442686,-0.4918454,carrer del general lacy / calle general lacy,nostra senyora de gracia,alacant / alicante,03003,pub
consulado britanico,2,0,38.3457204,-0.4837505,la rambla / la rambla,raval de sant francesc,alacant / alicante,03002,diplomatic
svaps,2,0,38.3460037,-0.4880084,carrer del metge pascual perez / calle medico pascual perez,nostra senyora de gracia,alacant / alicante,03001,e-cigarette
ciudad ibero romana de lucentum,2,2,38.3647421,-0.4388496,carrer de dafne / calle dafne,albufereta,alacant / alicante,03540,archaeological_site
plasa del poble gitano / plaza del pueblo gitano,2,0,38.3583524,-0.4907421,carrer alferez diaz sanchis / calle alferez diaz sanchis,campoamor,alacant / alicante,03004,steps
senda del poeta,2,0,38.3486495,-0.5783577,senda del poeta,el pla de la vallonga,alacant / alicante,03114,path
carrer d'indalecio prieto / calle indalecio prieto,2,0,38.3538357,-0.4751574,carrer d'indalecio prieto / calle indalecio prieto,santa creu,alacant / alicante,03013,yes
carrer del bariton paco latorre / calle baritono paco latorre,2,0,38.3760326,-0.4822065,carrer del bariton paco latorre / calle baritono paco latorre,colonia requena,alacant / alicante,03112,footway
carrer benifato / calle benifato,2,0,38.3734839,-0.482561,carrer benifato / calle benifato,joan xxiii,alacant / alicante,03014,footway
carrer de mariano benlliure / calle mariano benlliure,2,0,38.3779592,-0.5018755,carrer de mariano benlliure / calle mariano benlliure,villafranquesa,alacant / alicante,03011,footway
el refugio,2,0,38.3408195,-0.4907056,carrer d'italia / calle italia,raval de sant francesc,alacant / alicante,03003,bar
carrer de xativa / calle jativa,2,0,38.3791764,-0.5018791,carrer de xativa / calle jativa,villafranquesa,alacant / alicante,03011,footway
carrer de bolulla / calle bolulla,2,0,38.3770982,-0.50069,carrer de bolulla / calle bolulla,villafranquesa,alacant / alicante,03011,footway
carrer de camoens / calle camoens,2,0,38.3536337,-0.475029,carrer de camoens / calle camoens,santa creu,alacant / alicante,03013,footway
la barraca,2,0,38.5655963,-0.1672852,desconocido,desconocido,desconocido,03509,residential
bazar la rambla,3,0,38.3476243,-0.4843798,carrer del general primo de rivera / calle general primo de rivera,nostra senyora de gracia,alacant / alicante,03001,convenience
sotelo 10,3,0,38.3436028,-0.4886034,placa de calvo sotelo / plaza de calvo sotelo,nostra senyora de gracia,alacant / alicante,03001,cafe
plaza de espanya 4,3,0,38.3516599,-0.4853625,placa d'espanya / plaza de espana,raval de sant antoni,alacant / alicante,03004,bus_stop
pintor amoros,3,0,38.3706336,-0.4715152,carrer del pintor antonio amoros / calle pintor antonio amoros,ciutat elegida,alacant / alicante,03015,bus_stop
cristobal pardo,3,0,38.3629519,-0.4722109,carrer del doctor cristobal pardo / calle doctor cristobal pardo,el garbinet,alacant / alicante,03015,bus_stop
la florida,3,0,38.3416548,-0.5139434,carrer d'artur / calle arturo,la florida baixa,alacant / alicante,03007,pharmacy
el dragon escamado,3,0,38.351009,-0.4883346,carrer del taquigraf marti / calle taquigrafo marti,raval de sant antoni,alacant / alicante,03004,restaurant
estacion-salamanca,3,0,38.3440763,-0.49474,avinguda de salamanca / avenida de salamanca,nostra senyora de gracia,alacant / alicante,03003,bus_stop
plaza de espanya-panteon de quijano,3,0,38.3514,-0.4847416,placa d'espanya / plaza de espana,sant antoni,alacant / alicante,03004,bus_stop
falafelmania vegetariano oriental,3,0,38.3323606,-0.5089442,carrer de peru / calle peru,el palmeral,alacant / alicante,03007,restaurant
kontiki alicante-tabarca,3,0,38.3420311,-0.485014,passeig de l'almirall julio guillen tato / paseo del almirante julio guillen tato,raval de sant francesc,alacant / alicante,03002,ticket
aires burger bar,3,0,38.347669,-0.4850115,carrer del pintor sorolla / calle pintor sorolla,nostra senyora de gracia,alacant / alicante,03001,fast_food
camino de sabores,3,0,38.3474333,-0.4823879,carrer de sant rafael / calle san rafael,santa creu,alacant / alicante,03002,restaurant
taberna la vendimia,3,0,38.3609616,-0.4895266,carrer de llinares / calle llinares,altossano,alacant / alicante,03010,restaurant
restaurante goyo,3,0,38.34005,-0.4900517,carrer de l'arquebisbe loaces / calle arzobispo loaces,raval de sant francesc,alacant / alicante,03003,restaurant
maldita gloria!,3,0,38.348186,-0.4883157,carrer del poeta quintana / calle poeta quintana,nostra senyora de gracia,alacant / alicante,03001,cafe
europhone,3,0,38.3611214,-0.4923711,avinguda de novelda / avenida de novelda,altossano,alacant / alicante,03010,internet_cafe
universitat d'alacant / universidad de alicante (campus de sant vicent),3,0,38.3849307,-0.5141978,pinada de los cuentos,universidad,sant vicent del raspeig / san vicente del raspeig,03699,tree
polideportivo municipal stadium,3,0,38.3611393,-0.4245176,carrer del trident / calle tridente,entreplatges,alacant / alicante,03540,fitness_centre
plasa dels estels / plaza de los luceros,3,0,38.3460049,-0.490678,placa dels estels / plaza de los luceros,nostra senyora de gracia,alacant / alicante,03003,station
club deportivo montemar,3,0,38.3567191,-0.4756423,carrer de la gimnasta maisa lloret / calle gimnasta maisa lloret,el pla del bon repos,alacant / alicante,03013,pitch
facultat de farmacia - universitat miguel hernandez d'elx,3,2,38.3872224,-0.4354765,avenida don santiago ramon y cajal,la santa fac,sant joan d'alacant,03559,clinic
smile & co hostal,3,0,38.3429579,-0.4867299,carrer de rafael terol / calle rafael terol,raval de sant francesc,alacant / alicante,03001,hotel
platja d'aigua amarga,3,0,38.299863,-0.5189107,passeig del music ignacio juan barcelo / paseo musico ignacio juan barcelo,desconocido,alacant / alicante,03008,biergarten
doggy beach,3,0,38.2987065,-0.5194136,passeig del music ignacio juan barcelo / paseo musico ignacio juan barcelo,desconocido,alacant / alicante,03008,biergarten
carrer del comte pedro franqueza / calle conde pedro franqueza,3,0,38.3881722,-0.4852195,carrer del comte pedro franqueza / calle conde pedro franqueza,villafranquesa,alacant / alicante,03112,residential
avinguda dels exercits espanyols / avenida de los ejercitos espanyoles,3,0,38.3696196,-0.4826573,avinguda dels exercits espanyols / avenida de los ejercitos espanoles,quatre-centes vivendes,alacant / alicante,03112,house
carrer de la gemma / calle gema,3,0,38.3738587,-0.4861802,carrer de la gemma / calle gema,colonia requena,alacant / alicante,03112,footway
