id,nombre,e1_entrada_ppal,e2_itinerarios_accesibles,e3_zonas_atencion_publico,e4_servicios_higienicos,e5_elementos_accesibles,accesibilidad_total,lat,lon,direccion,barrio,ciudad,codigo_postal,tipo_lugar
1,+copy,0.0,0.0,0.0,0.0,0.0,4.0,38.3594783,-0.4911098,carrer d'aureliano ibarra / calle aureliano ibarra,altossano,alacant / alicante,3010.0,copyshop
2,3a edad,1.0,0.0,1.0,0.0,0.0,1.0,38.08449800000003,-0.7467669999999972,calle federico garcia lorca,desconocido,desconocido,03179,social_facility
3,agencia de lectura,0.0,0.0,0.0,0.0,0.0,0.0,38.70115400000003,-0.7611310000000006,carrer dionisio mateos,desconocido,desconocido,desconocido,residential
4,aires burger bar,0.0,0.0,0.0,0.0,0.0,3.0,38.347669,-0.4850115,carrer del pintor sorolla / calle pintor sorolla,nostra senyora de gracia,alacant / alicante,3001.0,fast_food
5,ajuntament,0.0,0.0,0.0,0.0,0.0,0.0,38.77995020000001,-0.515635300000003,carrer major,desconocido,desconocido,03837,service
6,ajuntament d'altea,0.0,0.0,0.0,0.0,0.0,0.0,38.6024481,-0.0473178999999979,carrer gabriel miro,desconocido,altea,03590,jewelry
7,ajuntament salo d'actes,0.0,0.0,0.0,1.0,0.0,1.0,38.73923159999998,-0.0122051999999993,carrer esglesia,urbanitzacio solana park,desconocido,03727,police
8,akraclima instalaciones aire acondicionado,0.0,0.0,0.0,0.0,0.0,4.0,38.349046,-0.4745403,carrer de la mare de deu del socors / calle virgen del socorro,sangueta,alacant / alicante,3002.0,appliance
9,alacant terminal,0.0,0.0,0.0,0.0,0.0,4.0,38.3449804,-0.496061,carrer de bono guarner / calle bono guarner,nostra senyora de gracia,alacant / alicante,3003.0,station
10,alacant-estels,0.0,0.0,0.0,0.0,0.0,4.0,38.3459294,-0.4908702,placa dels estels / plaza de los luceros,nostra senyora de gracia,alacant / alicante,3003.0,subway_entrance
11,alcampo,0.0,0.0,0.0,0.0,0.0,4.0,38.3547252,-0.4713733,avinguda de denia / avenida de denia,vistahermosa,alacant / alicante,3016.0,supermarket
12,alohers coffee surf,0.0,0.0,0.0,0.0,0.0,4.0,38.3629488,-0.4115241,carrer de sicilia / calle sicilia,desconocido,alacant / alicante,3540.0,fast_food
13,always,0.0,0.0,0.0,0.0,0.0,4.0,38.3405526,-0.490716,carrer d'italia / calle italia,raval de sant francesc,alacant / alicante,3003.0,supermarket
14,antiguo consultorio,1.0,0.0,1.0,0.0,0.0,1.0,38.56753099999999,-0.2115129999999994,carrer nou,desconocido,desconocido,desconocido,house
15,antiguo cuartel de carabineros (centro de educacion am,1.0,0.0,0.0,0.0,0.0,1.0,38.57009659999999,-0.0643389000000025,cami vell del far,l'albir,desconocido,03581,yes
16,aromas artesanales,0.0,0.0,0.0,0.0,0.0,4.0,38.3545628,-0.4717984,avinguda de denia / avenida de denia,vistahermosa,alacant / alicante,3016.0,perfumery
17,asador pollos la ceramica,0.0,0.0,0.0,0.0,0.0,2.0,38.3624918,-0.4896287,carrer de martin luther king / calle martin luther king,altossano,alacant / alicante,3010.0,fast_food
18,ascensor al castillo de santa barbara,0.0,0.0,0.0,0.0,0.0,4.0,38.3467887,-0.4769547,tunel de acceso ascensor al castillo de santa barbara,sant antoni,alacant / alicante,3002.0,footway
19,asociacion de mujeres,0.0,0.0,1.0,1.0,0.0,1.0,38.06139399999998,-0.8665830000000045,calle marques de fontalba,desconocido,desconocido,03310,house
20,ateneo musical,1.0,0.0,1.0,0.0,0.0,1.0,38.34805399999996,-0.7662110000000056,calle doctor fleming,desconocido,aspe,03680,restaurant
21,auditori centro social,0.0,0.0,0.0,0.0,1.0,0.0,38.50991499999997,-0.2309349999999968,carrer dels germans aragones,desconocido,la vila joiosa / villajoyosa,03570,residential
22,auditori municipal,0.0,1.0,0.0,0.0,1.0,1.0,38.8254555,0.0200077000000034,carrer de sant jaume,desconocido,desconocido,03760,house
23,auditorio la concha,0.0,0.0,0.0,0.0,0.0,4.0,38.3428843,-0.4837883,passeig de l'esplanada d'espanya / paseo de la explanada de espana,raval de sant francesc,alacant / alicante,3001.0,bandstand
24,auditorio y escuela de musica,1.0,0.0,1.0,0.0,1.0,1.0,38.84250929999999,-0.3106441999999954,carrer de la vall de gallinera,desconocido,desconocido,03860,theatre
25,aulari de musica,1.0,0.0,1.0,0.0,0.0,1.0,38.82525,0.0171669999999942,carrer josep iturbi,desconocido,desconocido,03760,music_school
26,aulas municipales de uso polivalente,1.0,1.0,1.0,0.0,0.0,1.0,38.386852000000026,-0.7672080000000008,calle menendez pelayo,desconocido,novelda,03660,residential
27,av. naciones,0.0,0.0,0.0,0.0,0.0,4.0,38.3623141,-0.4203368,avinguda goleta / avenida de la goleta,entreplatges,alacant / alicante,3540.0,tram_stop
28,avenida de denia - canonigo penalva,0.0,0.0,0.0,0.0,0.0,4.0,38.3526538,-0.4728363,carrer del bisbe victorio oliver / calle obispo victorio oliver,vistahermosa,alacant / alicante,3013.0,bus_stop
29,avinguda de la baronia de polop / avenida baronia de polop,0.0,0.0,0.0,0.0,0.0,4.0,38.3760441,-0.4946521,avinguda de la baronia de polop / avenida baronia de polop,el clot,alacant / alicante,3011.0,footway
30,avinguda de novelda / avenida de novelda,0.0,0.0,0.0,0.0,0.0,4.0,38.3696064,-0.4971488,avinguda de novelda / avenida de novelda,la tombola,alacant / alicante,3011.0,secondary
31,avinguda del pintor gaston castello / avenida del pintor gaston castello,0.0,0.0,0.0,0.0,0.0,4.0,38.3754301,-0.4872937,avinguda del pintor gaston castello / avenida del pintor gaston castello,colonia requena,alacant / alicante,3112.0,footway
32,avinguda dels exercits espanyols / avenida de los ejercitos espanyoles,0.0,0.0,0.0,0.0,0.0,3.0,38.3696196,-0.4826573,avinguda dels exercits espanyols / avenida de los ejercitos espanoles,quatre-centes vivendes,alacant / alicante,3112.0,house
33,avinguda ronda de melilla / avenida ronda de melilla,0.0,0.0,0.0,0.0,0.0,4.0,38.3736418,-0.4829173,avinguda ronda de melilla / avenida ronda de melilla,joan xxiii,alacant / alicante,3014.0,footway
34,ayuntamiento,0.0,0.0,0.0,0.0,0.0,0.0,38.43923400000004,-0.6385810000000013,placa d'espanya,desconocido,desconocido,03698,townhall
35,bar lucy,0.0,0.0,0.0,0.0,0.0,4.0,38.3480984,-0.5104992,carrer d'aldebaran / calle aldebaran,la florida alta,alacant / alicante,3007.0,bar
36,barbera aragones,0.0,1.0,0.0,0.0,1.0,1.0,38.51036699999998,-0.2302499999999969,carrer del huit de maig,desconocido,la vila joiosa / villajoyosa,03570,museum
37,bazar la rambla,0.0,0.0,0.0,0.0,0.0,3.0,38.3476243,-0.4843798,carrer del general primo de rivera / calle general primo de rivera,nostra senyora de gracia,alacant / alicante,3001.0,convenience
38,bbva,0.0,0.0,0.0,0.0,0.0,4.0,38.3639818,-0.4314956,carrer de pedro ferrandiz / calle pedro ferrandiz,albufereta,alacant / alicante,3540.0,bank
39,bellea del foc,0.0,0.0,0.0,0.0,0.0,2.0,38.3676741,-0.4712857,carrer de la bellea del foc / calle de la bellea del foc,ciutat elegida,alacant / alicante,3015.0,bus_stop
40,biblioteca,1.0,0.0,0.0,0.0,0.0,1.0,38.56727700000002,-0.211247999999994,carrer sant josep,desconocido,desconocido,desconocido,residential
41,biblioteca casa de la cultura llar 3a edat,0.0,0.0,0.0,0.0,0.0,0.0,38.74223300000004,-0.0088050000000002,cv-750,urbanitzacio solana park,desconocido,03727,secondary
42,biblioteca municipal,0.0,0.0,0.0,0.0,0.0,0.0,38.716354,-0.656091,carrer de la malena,desconocido,desconocido,03450,steps
43,biblioteca ruben dario,0.0,0.0,0.0,0.0,0.0,0.0,38.34593999999996,-0.7692430000000043,calle de san jose,desconocido,aspe,03680,yes
44,bitbase,0.0,0.0,0.0,0.0,0.0,2.0,38.3429753,-0.4882036,avinguda del doctor gadea / avenida doctor gadea,nostra senyora de gracia,alacant / alicante,3001.0,bureau_de_change
45,bodhigreen,0.0,0.0,0.0,0.0,0.0,2.0,38.3426215,-0.4863141,carrer de lanuza / calle lanuza,raval de sant francesc,alacant / alicante,3001.0,restaurant
46,boga sky bar,0.0,0.0,0.0,0.0,0.0,4.0,38.3648946,-0.4177233,avinguda de catalunya / avenida de cataluna,entreplatges,alacant / alicante,3540.0,bar
47,bulevar del pla,0.0,0.0,0.0,0.0,0.0,4.0,38.359949,-0.4720944,avinguda del periodista rodolfo salazar / avenida del periodista rodolfo salazar,barri obrer,alacant / alicante,3015.0,tram_stop
48,bulevar del pla (tram),0.0,0.0,0.0,0.0,0.0,4.0,38.3587963,-0.4724778,avinguda padre espla / avenida padre espla,el pla del bon repos,alacant / alicante,3015.0,bus_stop
49,burger king,0.0,0.0,0.0,0.0,0.0,4.0,38.3653364,-0.4862979,carrer de colombia / calle colombia,altossano,alacant / alicante,3014.0,fast_food
50,c. salut casc antic,1.0,0.0,0.0,0.0,1.0,1.0,38.60150140000001,-0.0547838000000011,carrer la vila joiosa / calle villajoyosa,desconocido,altea,03590,doctors
51,c.a. montemar,0.0,0.0,0.0,0.0,0.0,4.0,38.3571008,-0.4764069,avinguda padre espla / avenida padre espla,el pla del bon repos,alacant / alicante,3013.0,bus_stop
52,c.c. gran via,0.0,0.0,0.0,0.0,0.0,4.0,38.3656229,-0.4712372,placa de l'alcalde agatangelo soler / plaza alcalde agatangelo soler,el garbinet,alacant / alicante,3015.0,bus_stop
53,c.e.a.m,0.0,0.0,0.0,0.0,1.0,0.0,38.60303520000004,-0.0479530000000039,carrer marina baixa,desconocido,altea,03590,residential
54,c.e.i.p. francisco cloquell,0.0,0.0,1.0,0.0,0.0,0.0,38.8436532,-0.3099853999999951,carrer escoles,desconocido,desconocido,03860,school
55,c.p. azorin,0.0,1.0,0.0,0.0,1.0,1.0,38.64852940000004,0.0478838999999976,partida gargasindi,la soliva,calp,03710,school
56,c.p. egb virgen del pilar,1.0,0.0,0.0,0.0,0.0,1.0,38.02939700000002,-0.7425660000000033,calle maestro fidel gomez,desconocido,desconocido,03187,school
57,c.p. lucentum,0.0,0.0,0.0,0.0,0.0,4.0,38.3748133,-0.4932411,carrer de l'economista german bernacer / calle economista german bernacer,ciutat jardi,alacant / alicante,3112.0,tertiary
58,cafe gadea,0.0,0.0,0.0,0.0,0.0,2.0,38.3424795,-0.487882,avinguda del doctor gadea / avenida doctor gadea,nostra senyora de gracia,alacant / alicante,3003.0,cafe
59,cafetea,0.0,0.0,0.0,0.0,0.0,4.0,38.3595678,-0.4831337,carrer del pinos / calle pinoso,les carolines altes,alacant / alicante,3012.0,cafe
60,cafeteria jijona babel,0.0,0.0,0.0,0.0,0.0,4.0,38.341069,-0.5064049,carrer de pardo jimeno / calle pardo jimeno,la florida baixa,alacant / alicante,3007.0,cafe
61,cafeteria mare nostrum,0.0,0.0,0.0,0.0,0.0,4.0,38.3444062,-0.4956106,carrer de rigoberto ferrer / calle rigoberto ferrer,alipark,alacant / alicante,3003.0,cafe
62,calderon-la lonja,0.0,0.0,0.0,0.0,0.0,4.0,38.3499284,-0.4857024,carrer de calderon de la barca / calle calderon de la barca,raval de sant antoni,alacant / alicante,3004.0,bus_stop
63,calle geografo rey pastor / carrer del geograf rey pastor,0.0,0.0,0.0,0.0,0.0,4.0,38.372354,-0.4859461,carrer del geograf rey pastor / calle geografo rey pastor,mare de deu del carme,alacant / alicante,3112.0,residential
64,cami del clot / camino del clot,0.0,0.0,0.0,0.0,0.0,4.0,38.3791964,-0.4998765,cami del clot / camino del clot,el clot,alacant / alicante,3011.0,unclassified
65,camino de sabores,0.0,0.0,0.0,0.0,0.0,3.0,38.3474333,-0.4823879,carrer de sant rafael / calle san rafael,santa creu,alacant / alicante,3002.0,restaurant
66,canela,0.0,0.0,0.0,0.0,0.0,4.0,38.3662597,-0.4304644,avinguda de l'historiador vicente ramos / avenida del historiador vicente ramos,albufereta,alacant / alicante,3540.0,cafe
67,carrefour express,0.0,0.0,0.0,0.0,0.0,4.0,38.3857389,-0.4498632,carrer de la llar provincial antonio fernandez valenzuela / calle hogar provincial antonio fernandez valenzuela,orgegia,alacant / alicante,3559.0,convenience
68,carrer agustin jimenez navarlaz / calle agustin jimenez navarlaz,0.0,0.0,0.0,0.0,0.0,4.0,38.3660088,-0.4895822,carrer d'agustin jimenez navarlaz / calle agustin jimenez navarlaz,benissaudet,alacant / alicante,3009.0,parking
69,carrer benifato / calle benifato,0.0,0.0,0.0,0.0,0.0,2.0,38.3734839,-0.482561,carrer benifato / calle benifato,joan xxiii,alacant / alicante,3014.0,footway
70,carrer d'alcala galiano / calle alcala galiano,0.0,0.0,0.0,0.0,0.0,4.0,38.3573095,-0.4842858,carrer d'alcala galiano / calle alcala galiano,campoamor,alacant / alicante,3012.0,footway
71,carrer d'alonso cano / calle alonso cano,0.0,0.0,0.0,0.0,0.0,4.0,38.3723611,-0.4825753,carrer d'alonso cano / calle alonso cano,quatre-centes vivendes,alacant / alicante,3014.0,footway
72,carrer d'indalecio prieto / calle indalecio prieto,0.0,0.0,0.0,0.0,0.0,2.0,38.3538357,-0.4751574,carrer d'indalecio prieto / calle indalecio prieto,santa creu,alacant / alicante,3013.0,yes
73,carrer d'ortega y gasset / calle ortega y gasset,0.0,0.0,0.0,0.0,0.0,4.0,38.3746791,-0.4934706,carrer d'ortega y gasset / calle ortega y gasset,ciutat jardi,alacant / alicante,3011.0,footway
74,carrer de benejusser / calle benejuzar,0.0,0.0,0.0,0.0,0.0,4.0,38.3693093,-0.4824523,avinguda dels exercits espanyols / avenida de los ejercitos espanoles,quatre-centes vivendes,alacant / alicante,3014.0,sports_centre
75,carrer de bolulla / calle bolulla,0.0,0.0,0.0,0.0,0.0,2.0,38.3770982,-0.50069,carrer de bolulla / calle bolulla,villafranquesa,alacant / alicante,3011.0,footway
76,carrer de camoens / calle camoens,0.0,0.0,0.0,0.0,0.0,2.0,38.3536337,-0.475029,carrer de camoens / calle camoens,santa creu,alacant / alicante,3013.0,footway
77,carrer de granada / calle granada,0.0,0.0,0.0,0.0,0.0,4.0,38.3733521,-0.4883593,carrer de granada / calle granada,verge del remei,alacant / alicante,3112.0,house
78,carrer de l'advocat perez mirete / calle abogado perez mirete,0.0,0.0,0.0,0.0,0.0,4.0,38.3747128,-0.4919932,carrer de l'advocat perez mirete / calle abogado perez mirete,verge del remei,alacant / alicante,3112.0,footway
79,carrer de l'economista german bernacer / calle economista german bernacer,0.0,0.0,0.0,0.0,0.0,4.0,38.3750163,-0.4925827,carrer de l'economista german bernacer / calle economista german bernacer,ciutat jardi,alacant / alicante,3112.0,footway
80,carrer de l'escriptor damaso alonso / calle escritor damaso alonso,0.0,0.0,0.0,0.0,0.0,4.0,38.3694077,-0.4866717,carrer de l'escriptor damaso alonso / calle escritor damaso alonso,mare de deu del carme,alacant / alicante,3014.0,footway
81,carrer de la gemma / calle gema,0.0,0.0,0.0,0.0,0.0,3.0,38.3738587,-0.4861802,carrer de la gemma / calle gema,colonia requena,alacant / alicante,3112.0,footway
82,carrer de la maragda / calle esmeralda,0.0,0.0,0.0,0.0,0.0,4.0,38.3750347,-0.4850952,carrer de la maragda / calle esmeralda,colonia requena,alacant / alicante,3112.0,footway
83,carrer de la perla / calle perla,0.0,0.0,0.0,0.0,0.0,4.0,38.3745354,-0.4864612,carrer de la perla / calle perla,colonia requena,alacant / alicante,3112.0,footway
84,carrer de la plata / calle plata,0.0,0.0,0.0,0.0,0.0,4.0,38.3741754,-0.4866775,carrer de la plata / calle plata,colonia requena,alacant / alicante,3112.0,footway
85,carrer de la serra cabeso d'or / calle sierra cabezo d'or,0.0,0.0,0.0,0.0,0.0,4.0,38.3719094,-0.487162,carrer de la serra cabeco d'or / calle sierra cabezo d'or,verge del remei,alacant / alicante,3112.0,footway
86,carrer de la serra d'aitana / calle sierra de aitana,0.0,0.0,0.0,0.0,0.0,4.0,38.3721561,-0.4872184,carrer de la serra d'aitana / calle sierra de aitana,verge del remei,alacant / alicante,3112.0,footway
87,carrer de la serra de cavalls / calle sierra de cavalls,0.0,0.0,0.0,0.0,0.0,4.0,38.3701793,-0.4833589,carrer de la serra cavalls / calle sierra de cavalls,quatre-centes vivendes,alacant / alicante,3014.0,residential
88,carrer de la serra maigmo / calle sierra maigmo,0.0,0.0,0.0,0.0,0.0,4.0,38.37345,-0.4876347,carrer de la serra maigmo / calle sierra maigmo,verge del remei,alacant / alicante,3112.0,house
89,carrer de la turquesa / calle turquesa,0.0,0.0,0.0,0.0,0.0,4.0,38.377256,-0.4843664,carrer de la turquesa / calle turquesa,joan xxiii,alacant / alicante,3112.0,footway
90,carrer de la verge de monserrate / calle virgen de monserrate,0.0,0.0,0.0,0.0,0.0,4.0,38.369247,-0.497593,carrer de la verge de monserrate / calle virgen de monserrate,la tombola,alacant / alicante,3011.0,footway
91,carrer de la verge dels lliris / calle virgen de los lirios,0.0,0.0,0.0,0.0,0.0,4.0,38.3693897,-0.4981901,carrer de la verge dels lliris / calle virgen de los lirios,la tombola,alacant / alicante,3011.0,footway
92,carrer de mariano benlliure / calle mariano benlliure,0.0,0.0,0.0,0.0,0.0,2.0,38.3779592,-0.5018755,carrer de mariano benlliure / calle mariano benlliure,villafranquesa,alacant / alicante,3011.0,footway
93,carrer de moncada / calle moncada,0.0,0.0,0.0,0.0,0.0,4.0,38.3720623,-0.4855992,carrer de moncada / calle moncada,mare de deu del carme,alacant / alicante,3112.0,house
94,carrer de parcent / calle parcent,0.0,0.0,0.0,0.0,0.0,4.0,38.3748775,-0.492562,carrer de parcent / calle parcent,ciutat jardi,alacant / alicante,3112.0,footway
95,carrer de sant pere poveda / calle san pedro poveda,0.0,0.0,0.0,0.0,0.0,4.0,38.3664069,-0.489956,carrer de sant pere poveda / calle san pedro poveda,benissaudet,alacant / alicante,3009.0,footway
96,carrer de santa maria josefa / calle santa maria josefa,0.0,0.0,0.0,0.0,0.0,4.0,38.3751506,-0.4972851,carrer de santa maria josefa / calle santa maria josefa,ciutat jardi,alacant / alicante,3011.0,footway
97,carrer de valdes leal / calle valdes leal,0.0,0.0,0.0,0.0,0.0,4.0,38.3747639,-0.4988702,carrer de valdes leal / calle valdes leal,desconocido,alacant / alicante,3011.0,residential
98,carrer de vicente alexandre / calle vicente alexandre,0.0,0.0,0.0,0.0,0.0,4.0,38.3696489,-0.4923918,carrer de vicente alexandre / calle vicente alexandre,benissaudet,alacant / alicante,3112.0,footway
99,carrer de villa de chiva / calle villa de chiva,0.0,0.0,0.0,0.0,0.0,4.0,38.3719809,-0.4875906,carrer de villa de chiva / calle villa de chiva,verge del remei,alacant / alicante,3112.0,footway
100,carrer de xativa / calle jativa,0.0,0.0,0.0,0.0,0.0,2.0,38.3791764,-0.5018791,carrer de xativa / calle jativa,villafranquesa,alacant / alicante,3011.0,footway
101,carrer del bariton paco latorre / calle baritono paco latorre,0.0,0.0,0.0,0.0,0.0,2.0,38.3760326,-0.4822065,carrer del bariton paco latorre / calle baritono paco latorre,colonia requena,alacant / alicante,3112.0,footway
102,carrer del canonge giner / calle canonigo giner,0.0,0.0,0.0,0.0,0.0,4.0,38.3732927,-0.4872887,carrer del canonge giner / calle canonigo giner,verge del remei,alacant / alicante,3112.0,house
103,carrer del capella planelles / calle cura planelles,0.0,0.0,0.0,0.0,0.0,4.0,38.3727938,-0.4979586,carrer del capella planelles / calle cura planelles,ciutat jardi,alacant / alicante,3011.0,residential
104,carrer del clot / calle clot,0.0,0.0,0.0,0.0,0.0,4.0,38.3758656,-0.4960793,carrer del clot / calle clot,el clot,alacant / alicante,3011.0,footway
105,carrer del comte pedro franqueza / calle conde pedro franqueza,0.0,0.0,0.0,0.0,0.0,3.0,38.3881722,-0.4852195,carrer del comte pedro franqueza / calle conde pedro franqueza,villafranquesa,alacant / alicante,3112.0,residential
106,carrer del cronista figueras pacheco / calle cronista figueras pacheco,0.0,0.0,0.0,0.0,0.0,4.0,38.3726021,-0.4847432,carrer del cronista figueras pacheco / calle cronista figueras pacheco,colonia requena,alacant / alicante,3014.0,footway
107,carrer del diamant / calle diamante,0.0,0.0,0.0,0.0,0.0,4.0,38.3743523,-0.4866873,carrer del diamant / calle diamante,colonia requena,alacant / alicante,3112.0,footway
108,carrer del diputat antonio garcia miralles / calle diputado antonio garcia miralles,0.0,0.0,0.0,0.0,0.0,4.0,38.3688688,-0.4841132,carrer del diputat antonio garcia miralles / calle diputado antonio garcia miralles,mare de deu del carme,alacant / alicante,3014.0,footway
109,carrer del diputat joaquin fuster / calle diputado joaquin fuster,0.0,0.0,0.0,0.0,0.0,4.0,38.3709035,-0.4834529,carrer del diputat joaquin fuster / calle diputado joaquin fuster,mare de deu del carme,alacant / alicante,3014.0,footway
110,carrer del diputat joaquin galant ruiz / calle diputado joaquin galant ruiz,0.0,0.0,0.0,0.0,0.0,4.0,38.3705255,-0.4835479,carrer del diputat joaquin fuster / calle diputado joaquin fuster,mare de deu del carme,alacant / alicante,3014.0,police
111,carrer del diputat juan antonio rodriguez marin / calle diputado juan antonio rodriguez marin,0.0,0.0,0.0,0.0,0.0,4.0,38.3692435,-0.4842154,carrer del diputat juan antonio rodriguez marin / calle diputado juan antonio rodriguez marin,mare de deu del carme,alacant / alicante,3014.0,residential
112,carrer del diputat luis gamir casares / calle diputado luis gamir casares,0.0,0.0,0.0,0.0,0.0,4.0,38.3690347,-0.4846991,carrer del diputat luis gamir casares / calle diputado luis gamir casares,mare de deu del carme,alacant / alicante,3014.0,residential
113,carrer del doctor claramunt / calle doctor claramunt,0.0,0.0,0.0,0.0,0.0,4.0,38.3748665,-0.4894186,carrer del doctor claramunt / calle doctor claramunt,verge del remei,alacant / alicante,3112.0,footway
114,carrer del farmaceutic agatangelo soler / calle farmaceutico agatangelo soler,0.0,0.0,0.0,0.0,0.0,4.0,38.375163,-0.4874047,carrer del farmaceutic agatangelo soler / calle farmaceutico agatangelo soler,colonia requena,alacant / alicante,3112.0,footway
115,carrer del geograf rey pastor / calle geografo rey pastor,0.0,0.0,0.0,0.0,0.0,4.0,38.3723617,-0.4863679,carrer del geograf rey pastor / calle geografo rey pastor,colonia requena,alacant / alicante,3112.0,residential
116,carrer del mestre rosillo / calle maestro rosillo,0.0,0.0,0.0,0.0,0.0,4.0,38.3757954,-0.4804278,carrer del mestre rosillo / calle maestro rosillo,joan xxiii,alacant / alicante,3014.0,footway
117,carrer del music alfosea / calle musico alfosea,0.0,0.0,0.0,0.0,0.0,4.0,38.3733974,-0.4895101,carrer del music alfosea / calle musico alfosea,verge del remei,alacant / alicante,3112.0,house
118,carrer del music torres climent / calle musico torres climent,0.0,0.0,0.0,0.0,0.0,4.0,38.3748713,-0.4920305,carrer del music torres climent / calle musico torres climent,ciutat jardi,alacant / alicante,3112.0,residential
119,carrer del periodista francisco bas mingot / calle periodista francisco bas mingot,0.0,0.0,0.0,0.0,0.0,4.0,38.3747235,-0.4797889,carrer del periodista francisco bas mingot / calle periodista francisco bas mingot,joan xxiii,alacant / alicante,3014.0,footway
120,carrer del pintor perez pizarro / calle pintor perez pizarro,0.0,0.0,0.0,0.0,0.0,4.0,38.374068,-0.4905933,carrer del pintor perez pizarro / calle pintor perez pizarro,verge del remei,alacant / alicante,3112.0,footway
121,carrer del plati / calle platino,0.0,0.0,0.0,0.0,0.0,4.0,38.3740018,-0.4866687,carrer del plati / calle platino,colonia requena,alacant / alicante,3112.0,footway
122,carrer del poeta pedro salinas / calle poeta pedro salinas,0.0,0.0,0.0,0.0,0.0,4.0,38.3681164,-0.4901894,carrer del poeta pedro salinas / calle poeta pedro salinas,benissaudet,alacant / alicante,3112.0,footway
123,carrer del publicista jose tari / calle publicista jose tari,0.0,0.0,0.0,0.0,0.0,4.0,38.3740628,-0.4898657,carrer del publicista jose tari / calle publicista jose tari,verge del remei,alacant / alicante,3112.0,footway
124,carrer del quars / calle cuarzo,0.0,0.0,0.0,0.0,0.0,4.0,38.376836,-0.4871298,carrer del quars / calle cuarzo,verge del remei,alacant / alicante,3112.0,footway
125,carrer del safir / calle zafiro,0.0,0.0,0.0,0.0,0.0,4.0,38.3747129,-0.4864673,carrer del safir / calle zafiro,colonia requena,alacant / alicante,3112.0,footway
126,carrer del senador jose vicente mateo / calle senador jose vicente mateo,0.0,0.0,0.0,0.0,0.0,4.0,38.3705557,-0.4832639,carrer del senador jose vicente mateo / calle senador jose vicente mateo,quatre-centes vivendes,alacant / alicante,3014.0,residential
127,carrer del traverti / calle travertino,0.0,0.0,0.0,0.0,0.0,4.0,38.3748806,-0.4868265,carrer del traverti / calle travertino,colonia requena,alacant / alicante,3112.0,footway
128,carrer periodista francisco bas mingot / calle periodista francisco bas mingot,0.0,0.0,0.0,0.0,0.0,4.0,38.3746799,-0.4829418,carrer periodista francisco bas mingot / calle periodista francisco bas mingot,joan xxiii,alacant / alicante,3112.0,footway
129,carrer salvador allende / calle salvador allende,0.0,0.0,0.0,0.0,0.0,4.0,38.3766195,-0.4788499,carrer salvador allende / calle salvador allende,joan xxiii,alacant / alicante,3014.0,footway
130,carrer senyorita de trevelez / calle senyorita de trevelez,0.0,0.0,0.0,0.0,0.0,4.0,38.3747245,-0.4927805,carrer senorita de trevelez / calle senorita de trevelez,ciutat jardi,alacant / alicante,3112.0,residential
131,carrer sierra montgo / calle sierra montgo,0.0,0.0,0.0,0.0,0.0,4.0,38.3716531,-0.488556,carrer sierra montgo / calle sierra montgo,verge del remei,alacant / alicante,3112.0,house
132,casa alberola alicante curio collection by hilton,0.0,0.0,0.0,0.0,0.0,4.0,38.3422175,-0.4866396,carrer de canalejas / calle canalejas,raval de sant francesc,alacant / alicante,3001.0,hotel
133,casa consistorial,0.0,0.0,0.0,0.0,1.0,0.0,38.08678199999999,-0.7962720000000036,plaza de espana,desconocido,desconocido,03169,townhall
134,"casa consistorial ""locales municipales en plaza mayor",1.0,1.0,1.0,0.0,0.0,1.0,38.34624499999998,-0.768712,calle nuncio de su santidad d. manuel monteiro castro,desconocido,aspe,03680,pedestrian
135,casa consistorial (edificio historico),0.0,0.0,0.0,0.0,1.0,0.0,38.34580499999996,-0.7689219999999981,plaza mayor,desconocido,aspe,03680,townhall
136,casa consistorial centro civico y consultorio,0.0,0.0,0.0,0.0,1.0,0.0,38.75657900000003,-0.2752465000000041,carrer nou,desconocido,desconocido,03813,doctors
137,casa cultura,0.0,0.0,1.0,0.0,0.0,0.0,38.72450069999998,-0.3156660000000065,carrer trinquet,desconocido,desconocido,03811,townhall
138,casa de cultura,0.0,0.0,0.0,0.0,1.0,0.0,38.436116000000005,-0.637952999999995,avinguda de xixona,desconocido,desconocido,03698,school
139,casa de la cultura,0.0,0.0,0.0,0.0,0.0,0.0,38.772100200000025,-0.4251001999999957,avinguda del pais valencia,desconocido,desconocido,03829,residential
140,casa de la juventud,0.0,0.0,1.0,0.0,0.0,0.0,38.10453600000001,-0.7372310000000021,calle virgen de monserrate,desconocido,desconocido,03177,house
141,casa del poble,1.0,0.0,1.0,0.0,0.0,1.0,38.84505350000001,-0.3117206999999975,avinguda pou,desconocido,desconocido,03860,service
142,casa dels joves,1.0,1.0,1.0,0.0,0.0,1.0,38.8440073,-0.3109298999999965,carrer santa elena,desconocido,desconocido,03860,service
143,casa jove,0.0,0.0,1.0,0.0,0.0,0.0,38.78049689999996,-0.5166207,carrer sant antoni,desconocido,desconocido,03837,pharmacy
144,casa susi,0.0,0.0,0.0,0.0,0.0,2.0,38.362866,-0.483442,carrer del doctor buades / calle doctor buades,les carolines altes,alacant / alicante,3012.0,convenience
145,casa toni el fuster,0.0,1.0,0.0,0.0,0.0,1.0,38.59946570000004,-0.0516466000000031,costera dels matxos,desconocido,altea,03590,residential
146,casal de la juventud,1.0,0.0,0.0,0.0,0.0,1.0,38.38109500000001,-0.7687779999999937,calle doctor fleming,desconocido,novelda,03660,community_centre
147,casal tercera edad,1.0,0.0,0.0,0.0,0.0,1.0,38.53963400000004,-0.5067579999999968,carrer d'alcoi,barri de segorb,desconocido,03100,townhall
148,cash quality,0.0,0.0,0.0,0.0,0.0,4.0,38.376372,-0.5060028,carrer de benidoleig / calle benidoleig,la divina pastora,alacant / alicante,3011.0,supermarket
149,casino sportium,0.0,0.0,0.0,0.0,0.0,4.0,38.3623034,-0.4874003,avinguda del pintor baeza / avenida pintor baeza,altossano,alacant / alicante,3014.0,casino
150,castell de santa barbara,0.0,0.0,0.0,0.0,0.0,4.0,38.3490916,-0.4781771,tunel de acceso ascensor al castillo de santa barbara,sant antoni,alacant / alicante,3002.0,toilets
151,castello-esmeralda,0.0,0.0,0.0,0.0,0.0,4.0,38.3747007,-0.4871262,avinguda del pintor gaston castello / avenida del pintor gaston castello,colonia requena,alacant / alicante,3112.0,bus_stop
152,castillo de banyeres (museo festero),1.0,1.0,0.0,1.0,0.0,1.0,38.71571340000002,-0.6573839000000039,carrer del castell,desconocido,desconocido,03450,theatre
153,catral joven,0.0,0.0,0.0,0.0,0.0,0.0,38.16142699999998,-0.804689000000004,calle oscar espla,desconocido,desconocido,03158,police
154,ceip azorin,0.0,1.0,0.0,0.0,0.0,1.0,38.16125100000004,-0.8028360000000052,calle azorin,desconocido,desconocido,03158,school
155,ceip balcon de finestrat,0.0,0.0,0.0,0.0,1.0,0.0,38.548650000000045,-0.2010219999999987,avinguda del cami de l'alfas,desconocido,desconocido,03509,school
156,ceip cristobal colon,1.0,1.0,0.0,0.0,0.0,1.0,38.54273699999997,-0.5013059999999958,carrer de manuel galiana uriarte,barri de l'almarx,desconocido,03100,school
157,ceip eloi coloma,1.0,1.0,0.0,0.0,0.0,1.0,38.54219100000003,-0.5062510000000007,carrer de joan andres,barri de l'almarx,desconocido,03100,school
158,ceip juan carlos,0.0,0.0,0.0,0.0,0.0,0.0,38.08535599999996,-0.7445170000000008,calle concepcion mingot,desconocido,desconocido,03179,school
159,ceip la rambla,0.0,0.0,0.0,0.0,1.0,0.0,38.43819800000001,-0.635753999999999,carrer de la concepcion,desconocido,desconocido,03698,school
160,ceip paternina,0.0,0.0,0.0,0.0,1.0,0.0,38.64286129999999,0.0390772000000021,avinguda masnou,la manzanera,calp,03710,school
161,ceip puig campana,1.0,0.0,0.0,0.0,0.0,1.0,38.56903700000005,-0.2124809999999963,avinguda cami de reis,desconocido,desconocido,desconocido,secondary
162,ceip sagrada familia,0.0,0.0,0.0,0.0,0.0,0.0,38.53077900000004,-0.5066200000000014,avinguda de joan fuster,desconocido,desconocido,03100,school
163,ceip virgen de belen,0.0,1.0,0.0,0.0,0.0,1.0,38.06234500000005,-0.8696399999999939,calle mayor,desconocido,desconocido,03310,school
164,centre cult. a. vella,0.0,0.0,1.0,0.0,1.0,0.0,38.62866149999998,-0.0422976999999966,carrer carretera de callosa,desconocido,altea,03599,secondary
165,centre juvenil,0.0,0.0,0.0,0.0,0.0,0.0,38.56874399999997,-0.210511000000006,cv-761,desconocido,desconocido,desconocido,terrace
166,centre social,0.0,0.0,1.0,0.0,0.0,0.0,38.78053200000002,-0.5167029999999955,carrer sant antoni,desconocido,desconocido,03837,pharmacy
167,centre social 3a edat,0.0,1.0,0.0,0.0,1.0,1.0,38.602525000000014,-0.0481496999999941,carrer marina baixa,desconocido,altea,03590,bicycle_rental
168,centro atencion temprana,0.0,0.0,1.0,0.0,0.0,0.0,38.109361999999976,-0.7950249999999993,calle santo cristo,centro,almoradi,03160,residential
169,centro civico,0.0,0.0,1.0,0.0,0.0,0.0,38.11307699999998,-0.7176670000000015,lepanto,desconocido,desconocido,03078,community_centre
170,centro civico soci,0.0,0.0,0.0,0.0,0.0,0.0,38.380988000000016,-0.7702470000000008,avenida de los reyes catolicos,desconocido,novelda,03660,theatre
171,centro civico y social,0.0,0.0,1.0,0.0,1.0,0.0,38.02668100000004,-0.7431959999999952,calle virgen del remedio,desconocido,desconocido,03187,community_centre
172,centro cultural,0.0,0.0,1.0,0.0,0.0,0.0,38.06082700000004,-0.8668640000000016,pasaje de la iglesia,desconocido,desconocido,03310,civic
173,centro cultural de la tercera edad,0.0,0.0,1.0,0.0,0.0,0.0,38.57989849999999,-0.0995860000000027,carrer exercits espanyols,desconocido,desconocido,03580,tree
174,centro cultural escoles velles,0.0,0.0,0.0,0.0,0.0,0.0,38.58020799999997,-0.1005670000000061,carrer de murcia,desconocido,desconocido,03580,residential
175,centro cultural gomez tortosa+ oficina turismo +biblio,1.0,0.0,0.0,0.0,0.0,1.0,38.38631800000003,-0.7652099999999964,calle mayor,desconocido,novelda,03660,information
176,centro cultural san vicente ferrer,0.0,0.0,0.0,0.0,1.0,0.0,38.08581600000001,-0.795687,calle mayor,desconocido,desconocido,03169,house
177,centro cultural y casa de la juventud,1.0,0.0,0.0,1.0,0.0,1.0,38.34421300000002,-0.769917999999998,calle de san pedro,desconocido,aspe,03680,house
178,centro de dia,0.0,0.0,0.0,0.0,1.0,0.0,38.575395899999954,-0.0965012000000001,carrer rosa dels vents,arabi,desconocido,03580,government
179,centro de dia para menores,0.0,0.0,0.0,0.0,1.0,0.0,38.38335599999997,-0.7663879999999994,calle jaime ii,desconocido,novelda,03660,residential
180,centro de formacion,0.0,0.0,0.0,0.0,0.0,0.0,38.57891779999997,-0.0976848000000061,carretera de l'albir,jardi de l'alfas,desconocido,03580,tertiary
181,centro de salud,0.0,0.0,0.0,0.0,0.0,0.0,38.69941100000001,-0.7686169999999972,carrer del practicant bellod cortes,desconocido,desconocido,03409,tertiary
182,centro de salud (cesion de uso a gva-salud),0.0,1.0,0.0,0.0,1.0,1.0,38.57853689999997,-0.100174400000002,carrer princeps d'espanya,arabi,desconocido,03580,residential
183,centro de salud ciudad jardin,0.0,0.0,0.0,4.0,0.0,4.0,38.3754255,-0.4949514,carrer del clot / calle clot,el clot,alacant / alicante,3011.0,clinic
184,centro de salud ciudad jardin / centre de salut ciutat jardi,0.0,0.0,0.0,4.0,0.0,4.0,38.3754246,-0.4949259,carrer del clot / calle clot,el clot,alacant / alicante,3011.0,clinic
185,centro de tercera edad fco. alted palomares,1.0,0.0,0.0,0.0,0.0,1.0,38.38689000000001,-0.7706460000000009,carrer d'alacant,desconocido,novelda,03660,residential
186,centro dia,0.0,0.0,1.0,0.0,0.0,0.0,38.33873000000003,-0.7683270000000003,calle ruperto chapi,desconocido,aspe,03680,residential
187,centro enfermos de alzheimer,0.0,0.0,0.0,0.0,0.0,0.0,38.379036999999975,-0.7694819999999971,calle hermanos quintero,desconocido,novelda,03660,nursing_home
188,centro multiusos la cala,0.0,0.0,1.0,0.0,0.0,0.0,38.52766299999997,-0.165761000000005,avinguda marina baixa,la cala de finestrat,desconocido,03509,parking
189,centro multiusos terra marina,0.0,0.0,1.0,0.0,0.0,0.0,38.539974000000015,-0.1839280000000034,avinguda de la costa blanca,desconocido,desconocido,03509,community_centre
190,centro ocupacional ada,1.0,0.0,0.0,0.0,1.0,1.0,38.10953800000002,-0.784070999999996,calle medico julio garcia garcia,banet,almoradi,03106,school
191,centro pensionistas y jubilados,0.0,1.0,0.0,0.0,0.0,1.0,38.700365,-0.7669330000000028,placa de carles iv,desconocido,desconocido,desconocido,pedestrian
192,centro polivalente (cultural-social-ensenyanza-sanitar,1.0,0.0,0.0,0.0,1.0,1.0,38.67510399999996,-0.1113200000000046,carrer del raval de baix,desconocido,desconocido,03518,house
193,centro polivalente asociaciones (antiguo centro de sal,1.0,0.0,0.0,0.0,0.0,1.0,38.384541,-0.7570850000000057,avenida benito perez galdos,desconocido,novelda,03660,nursing_home
194,centro polivalente sociocultural,1.0,0.0,1.0,0.0,0.0,1.0,38.11214600000002,-0.7161860000000033,trafalgar,desconocido,desconocido,03078,school
195,centro salud agua deportivo (csad),1.0,0.0,0.0,0.0,1.0,1.0,38.382747,-0.7573189999999945,plaza margarita salas,desconocido,novelda,03660,sports_centre
196,centro salud polop avda sagi barba 24,0.0,0.0,0.0,0.0,1.0,0.0,38.622122000000005,-0.1298109999999988,avinguda de sagi barba,desconocido,desconocido,03520,pharmacy
197,centro social,0.0,0.0,0.0,0.0,0.0,0.0,38.43760400000002,-0.6391569999999983,avinguda del consell del pais valencia,desconocido,desconocido,03698,secondary
198,"centro social ""casa del cisco""",0.0,0.0,0.0,0.0,0.0,0.0,38.34776599999996,-0.7689789999999961,avenida de la constitucion,desconocido,aspe,03680,museum
199,centro social 3a edad de fleixy antiguo ayuntamiento,1.0,1.0,1.0,0.0,0.0,1.0,38.777854799999965,-0.1093689000000054,carrer major,desconocido,la vall de laguar,03791,house
200,centro social albir,0.0,0.0,0.0,0.0,0.0,0.0,38.571519800000026,-0.0770766999999992,carrer sant javier,urbanitzacio l'estrada,desconocido,03581,residential
201,centro social barrio la coca (centro de adultos),1.0,1.0,0.0,0.0,0.0,1.0,38.34244700000004,-0.7642440000000046,calle santander,desconocido,aspe,03680,school
202,centro social de la 3a edad,0.0,0.0,0.0,0.0,1.0,0.0,38.84346259999997,-0.3091574000000047,carrer de la safor,desconocido,desconocido,03860,restaurant
203,centro social de la estacion,0.0,0.0,1.0,0.0,1.0,0.0,38.40546300000001,-0.7750850000000052,cami castella,barrio de la estacion,novelda,03660,residential
204,centro social de recreo de personas mayores carmencita,1.0,0.0,0.0,0.0,0.0,1.0,38.378532000000014,-0.7721049999999959,calle san marcial,desconocido,novelda,03660,community_centre
205,centro social la alberca,1.0,0.0,0.0,0.0,0.0,1.0,38.594267000000016,-0.1434840000000047,avinguda d'andalusia,urbanitzacio l'alberca,desconocido,03520,residential
206,centro social plazoleta del pilar 3 pbj de xirles,1.0,0.0,0.0,0.0,0.0,1.0,38.63403500000002,-0.1361689999999972,carrer major,desconocido,desconocido,03520,residential
207,centro social polivalente,0.0,1.0,0.0,0.0,0.0,1.0,38.62888799999997,-0.6745159999999999,calle virgen salud,desconocido,onil,03430,residential
208,centro social urb. marina,0.0,0.0,0.0,0.0,0.0,0.0,38.135974,-0.6864229999999992,avenida de san fulgencio,urbanizacion la marina-el oasis,desconocido,03177,community_centre
209,centro socio cultural,0.0,0.0,0.0,0.0,0.0,0.0,38.02860999999997,-0.7473250000000035,calle virgen de loreto,barrio de los miras,desconocido,03187,house
210,centro socio cultural los palacios,0.0,0.0,0.0,0.0,1.0,0.0,38.08954700000004,-0.7273070000000003,calle benijofar,los palacios,desconocido,03078,pitch
211,centro sociocultural biblioteca y regantes,0.0,0.0,1.0,0.0,0.0,0.0,38.159203000000005,-0.8028929999999941,calle san antonio,desconocido,desconocido,03158,living_street
212,centro sociocultural san roque,0.0,0.0,1.0,0.0,1.0,0.0,38.08464500000001,-0.7467860000000056,calle federico garcia lorca,desconocido,desconocido,03179,social_facility
213,centro tercera edad,1.0,0.0,1.0,0.0,0.0,1.0,38.10816400000002,-0.7877830000000017,calle antimo illescas,centro,almoradi,03160,pedestrian
214,centro tercera edad barrio la garrova,1.0,1.0,1.0,0.0,0.0,1.0,38.385327,-0.7657529999999961,calle emilio castelar,desconocido,novelda,03660,bank
215,cerveceria jorge,0.0,0.0,0.0,0.0,0.0,2.0,38.3626074,-0.4897097,carrer de martin luther king / calle martin luther king,altossano,alacant / alicante,3010.0,bar
216,chiringuito rompeolas,0.0,0.0,0.0,0.0,0.0,4.0,38.3462433,-0.4767517,passeig de gomiz / paseo de gomiz,vistahermosa,alacant / alicante,3002.0,restaurant
217,cim formacion alicante,0.0,0.0,0.0,0.0,0.0,4.0,38.3488762,-0.4914931,carrer del mestre breton / calle maestro breton,nostra senyora de gracia,alacant / alicante,3004.0,college
218,ciudad ibero romana de lucentum,0.0,0.0,0.0,2.0,0.0,2.0,38.3647421,-0.4388496,carrer de dafne / calle dafne,albufereta,alacant / alicante,3540.0,archaeological_site
219,club convidencia de la 3a edad j. lozano,0.0,0.0,1.0,0.0,0.0,0.0,38.14095799999996,-0.886200999999998,calle alameda,desconocido,desconocido,03350,residential
220,club deportivo montemar,0.0,0.0,0.0,0.0,0.0,3.0,38.3567191,-0.4756423,carrer de la gimnasta maisa lloret / calle gimnasta maisa lloret,el pla del bon repos,alacant / alicante,3013.0,pitch
221,coffee nutz,0.0,0.0,0.0,0.0,0.0,4.0,38.3475316,-0.4845614,la rambla / la rambla,raval de sant francesc,alacant / alicante,3001.0,cafe
222,colegio alfonso iniesta y aulas anexas edu. infantil,0.0,0.0,0.0,0.0,1.0,0.0,38.721449999999976,-0.6566560000000032,carrer del llavadoret,desconocido,desconocido,03450,school
223,colegio jose maria manresa navarro,0.0,0.0,0.0,0.0,1.0,0.0,38.116188,-0.7165460000000031,avenida del polideportivo,desconocido,desconocido,03078,school
224,colegio la malena (conservatorio municipal de musica),1.0,1.0,1.0,0.0,0.0,1.0,38.716015,-0.6547940000000019,carrer de l'ermita,la mallaeta,desconocido,03450,parking
225,"colegio privado ""virgen de las nieves""",1.0,1.0,0.0,0.0,0.0,1.0,38.34841200000002,-0.7668700000000029,calle pedro galipienso,desconocido,aspe,03680,school
226,colegio publico,1.0,0.0,1.0,0.0,0.0,1.0,38.677612,-0.1988299999999978,carrer de l'esglesia,desconocido,desconocido,03516,school
227,"colegio publico ""dr. calatayud""",0.0,1.0,1.0,0.0,0.0,1.0,38.344260000000006,-0.7709409999999953,calle gregorio rizo,desconocido,aspe,03680,school
228,"colegio publico ""el castillo""",0.0,1.0,0.0,0.0,0.0,1.0,38.34800799999996,-0.7729750000000013,calle monovar,desconocido,aspe,03680,school
229,"colegio publico ""la paloma""",0.0,1.0,1.0,0.0,0.0,1.0,38.33812799999996,-0.7678630000000004,calle lope de vega,desconocido,aspe,03680,school
230,"colegio publico ""la paloma"" (colegio moscardo)",0.0,1.0,0.0,0.0,0.0,1.0,38.34165300000003,-0.7688100000000041,avenida gran capitan,desconocido,aspe,03680,school
231,"colegio publico ""la serranica""",0.0,1.0,0.0,0.0,1.0,1.0,38.346371000000005,-0.7616849999999977,calle jose vicedo calatayud,desconocido,aspe,03680,school
232,"colegio publico ""vistahermosa 2 ram-8""",0.0,1.0,0.0,0.0,0.0,1.0,38.34198300000004,-0.7695789999999927,calle virgen de la esperanza,desconocido,aspe,03680,school
233,"colegio publico ""vistahermosa i",1.0,1.0,0.0,0.0,0.0,1.0,38.33737999999996,-0.7673909999999972,calle antonio ayala,desconocido,aspe,03680,school
234,colegio publico divina aurora,1.0,0.0,0.0,0.0,1.0,1.0,38.70017899999997,-0.760597000000005,avenida baneres,desconocido,desconocido,03460,school
235,colindantes teatro wagner (posada y auditorio alfredo,0.0,0.0,1.0,0.0,0.0,0.0,38.34343599999998,-0.7707920000000053,calle barranco,desconocido,aspe,03680,bench
236,collegi d'educacio infantil i primaria san fernando,0.0,0.0,0.0,0.0,0.0,4.0,38.3552455,-0.4993587,carrer de ciudad real / calle ciudad real,poligon de sant blai,alacant / alicante,3005.0,school
237,como una estrella,0.0,0.0,0.0,0.0,0.0,2.0,38.3432547,-0.4944454,glorieta de l'estrella / glorieta de la estrella,nostra senyora de gracia,alacant / alicante,3003.0,artwork
238,conservatori m,0.0,0.0,0.0,0.0,0.0,0.0,38.59762139999999,-0.0508594999999949,carrer la sequia,desconocido,altea,03590,residential
239,conservatorio,0.0,0.0,0.0,0.0,0.0,0.0,38.16102499999996,-0.8034790000000008,calle jose m. miralles quinto,desconocido,desconocido,03158,residential
240,consulado britanico,0.0,0.0,0.0,0.0,0.0,2.0,38.3457204,-0.4837505,la rambla / la rambla,raval de sant francesc,alacant / alicante,3002.0,diplomatic
241,consultes externes,0.0,0.0,0.0,0.0,0.0,4.0,38.3642271,-0.4856023,carrer del mestre alonso / calle maestro alonso,les carolines altes,alacant / alicante,3012.0,hospital
242,consultorio auxiliar,1.0,1.0,0.0,1.0,1.0,1.0,38.67564799999995,-0.1987000000000014,avenida de alicante,desconocido,desconocido,03517,cafe
243,consultorio auxiliar la cala,0.0,0.0,0.0,0.0,0.0,0.0,38.53164299999998,-0.1683530000000064,avinguda marina baixa,la cala de finestrat,desconocido,03509,hotel
244,consultorio auxiliar marina,0.0,0.0,0.0,0.0,0.0,0.0,38.13546099999999,-0.6865799999999966,calle amsterdam,urbanizacion la marina-el oasis,desconocido,03177,clinic
245,consultorio auxiliar y vivienda medico,0.0,0.0,1.0,0.0,1.0,0.0,38.8423311,-0.3114108000000017,carrer mestres serrano,desconocido,desconocido,03860,carpenter
246,consultorio medico,0.0,0.0,0.0,0.0,1.0,0.0,38.08634200000005,-0.7953050000000019,calle san jose,desconocido,desconocido,03169,house
247,consultorio medico interior,0.0,0.0,0.0,0.0,0.0,0.0,38.02546900000002,-0.747437999999995,calle miguel hernandez,barrio de los miras,desconocido,03187,clinic
248,consultorio medico y centro social de benimaurell,1.0,0.0,1.0,0.0,1.0,1.0,38.77334249999997,-0.1273670999999979,carrer del llop,desconocido,la vall de laguar,03791,house
249,consultorio y proteccion civil,0.0,0.0,0.0,0.0,0.0,0.0,38.114614999999965,-0.7175389999999975,infanta leonor,desconocido,desconocido,03078,clinic
250,correos,0.0,0.0,0.0,0.0,0.0,4.0,38.3656993,-0.4311114,avinguda d'ansaldo / avenida de ansaldo,albufereta,alacant / alicante,3540.0,post_office
251,cp olta,0.0,1.0,0.0,0.0,0.0,1.0,38.64448840000003,0.0399257999999954,carrer pare manjon,la manzanera,calp,03710,school
252,cristobal pardo,0.0,0.0,0.0,0.0,0.0,3.0,38.3629519,-0.4722109,carrer del doctor cristobal pardo / calle doctor cristobal pardo,el garbinet,alacant / alicante,3015.0,bus_stop
253,denia - canonigo penalva ii,0.0,0.0,0.0,0.0,0.0,4.0,38.3524864,-0.473603,carrer del canonge manuel penalva / calle canonigo manuel penalva,sangueta,alacant / alicante,3013.0,bus_stop
254,denia - cc plaza mar 2,0.0,0.0,0.0,0.0,0.0,4.0,38.3532276,-0.4735168,avinguda de denia / avenida de denia,vistahermosa,alacant / alicante,3013.0,bus_stop
255,dependencias municipales (suma servicios sociales y p,0.0,0.0,0.0,0.0,0.0,0.0,38.159734999999976,-0.8048269999999951,desconocido,desconocido,desconocido,03158,pedestrian
256,disfruta zumos naturales,0.0,0.0,0.0,0.0,0.0,4.0,38.3493091,-0.4884099,placa del music oscar tordera inesta / plaza del musico oscar tordera inesta,nostra senyora de gracia,alacant / alicante,3004.0,fast_food
257,doggy beach,0.0,0.0,0.0,0.0,0.0,3.0,38.2987065,-0.5194136,passeig del music ignacio juan barcelo / paseo musico ignacio juan barcelo,desconocido,alacant / alicante,3008.0,biergarten
258,dua clinic,0.0,0.0,0.0,0.0,0.0,4.0,38.3701775,-0.4144339,avinguda de santander / avenida de santander,la platja de sant joan,alacant / alicante,3540.0,hospital
259,edf. local de la juventud y emisoria de radio,1.0,0.0,0.0,0.0,0.0,1.0,38.71553899999999,-0.6581600000000056,carrer del castell,desconocido,desconocido,03450,residential
260,edf. museo del papeldel pais valencia (villa rosario),1.0,0.0,0.0,0.0,0.0,1.0,38.72214499999999,-0.6557189999999985,passeig font del cavaller,la mallaeta,desconocido,03450,museum
261,edif. multiusos barquillero,0.0,0.0,1.0,0.0,0.0,0.0,38.537865000000025,-0.1731499999999926,cv-767,desconocido,desconocido,03509,parking
262,edifici al c/ del dr. gomez ferrer 44,1.0,1.0,0.0,0.0,0.0,1.0,38.77502499999999,0.0841660000000004,carrer doctor gomez ferrer,desconocido,desconocido,03740,house
263,edifici de l'ajuntament,0.0,0.0,0.0,0.0,1.0,0.0,38.773423999999984,0.0835119999999947,carrer la bassa,desconocido,desconocido,03740,pedestrian
264,edifici de la escoleta infantil,1.0,0.0,1.0,0.0,1.0,1.0,38.82800699999998,0.0216350000000018,carrer alfatares,desconocido,desconocido,03760,residential
265,edifici de lajuntament,0.0,0.0,0.0,0.0,0.0,0.0,38.82825600000002,0.0170440000000024,placa del convent,desconocido,desconocido,03760,living_street
266,edifici del centre social integrat,0.0,0.0,0.0,0.0,1.0,0.0,38.77309900000002,0.0833639999999968,pr-cv 412,desconocido,desconocido,03740,path
267,edifici del grup escolar santissim crist,0.0,1.0,0.0,0.0,0.0,1.0,38.77054999999998,0.083712,carrer de les alcolaies,desconocido,desconocido,03740,school
268,edifici el prado . sala multiusos,1.0,0.0,0.0,0.0,0.0,1.0,38.828694999999975,0.0162669999999962,avinguda general bosch,desconocido,desconocido,03760,marketplace
269,"edifici polivalent ""guillem agullo""",0.0,0.0,1.0,0.0,0.0,0.0,38.77068299999999,0.0841319999999952,carrer del grup escolar,desconocido,desconocido,03740,house
270,edificio antiguo ceip sant roc,0.0,1.0,0.0,0.0,1.0,1.0,38.61260699999999,-0.1355930000000065,calle apolo,urbanitzacio polop paradis,desconocido,03520,kindergarten
271,edificio casa consistorial,0.0,0.0,0.0,0.0,1.0,0.0,38.622601,-0.1313410000000018,avinguda de sagi barba,desconocido,desconocido,03520,residential
272,edificio casa de cultura,1.0,1.0,0.0,0.0,0.0,1.0,38.62171299999998,-0.1269719999999983,carrer del posit,desconocido,desconocido,03520,residential
273,edificio casa museo gabriel miro,1.0,1.0,0.0,0.0,0.0,1.0,38.62238300000001,-0.1306620000000022,avinguda de sagi barba,desconocido,desconocido,03520,residential
274,edificio centro social c. san ramon no 36,1.0,0.0,1.0,0.0,1.0,1.0,38.63431700000001,-0.1343159999999953,carrer de sant ramon,desconocido,desconocido,03520,residential
275,edificio centro social pau 1 parcela 51 equip admin,0.0,0.0,1.0,0.0,0.0,0.0,38.61910999999998,-0.1439240000000079,avinguda de la baronia de polop,urbanitzacio polop paradis,desconocido,03520,residential
276,edificio de la casa consistorial (ayuntamiento),0.0,0.0,0.0,0.0,0.0,0.0,38.57957100000005,-0.1017262999999999,carrer de les escoles,desconocido,desconocido,03580,tertiary
277,edificio multiusos,1.0,0.0,1.0,0.0,0.0,1.0,38.6553226,0.0491849999999966,desconocido,san bernardo,calp,03710,unclassified
278,edificio multiusos emaus,1.0,0.0,1.0,0.0,0.0,1.0,38.84179600000004,0.0100499999999978,carrer de sant antoni,desconocido,desconocido,03770,residential
279,edificio multiusos o centro socio cultural la pilarica,0.0,0.0,0.0,0.0,1.0,0.0,38.62210299999998,-0.1297259999999986,avinguda de sagi barba,desconocido,desconocido,03520,pharmacy
280,edificio multiusos y antiguo consultorio de campell,1.0,0.0,1.0,0.0,0.0,1.0,38.78050929999995,-0.1013413000000003,carrer rei en jaume,desconocido,la vall de laguar,03791,doctors
281,edificio nuevo ceip sant roc,0.0,1.0,0.0,0.0,0.0,1.0,38.61436200000003,-0.1361750000000043,calle apolo,urbanitzacio polop paradis,desconocido,03520,parking
282,edificio usos multiples,0.0,0.0,1.0,1.0,1.0,1.0,38.84639399999997,0.0113100000000023,carrer l'escorxador,desconocido,desconocido,03770,residential
283,el corte ingles,0.0,0.0,0.0,0.0,0.0,4.0,38.3440222,-0.4898638,avinguda de federico soto / avenida de federico soto,nostra senyora de gracia,alacant / alicante,3003.0,toilets
284,el dragon escamado,0.0,0.0,0.0,0.0,0.0,3.0,38.351009,-0.4883346,carrer del taquigraf marti / calle taquigrafo marti,raval de sant antoni,alacant / alicante,3004.0,restaurant
285,el mirador,0.0,0.0,0.0,0.0,0.0,2.0,38.3485199,-0.4750497,carrer de la mare de deu del socors / calle virgen del socorro,sant roc,alacant / alicante,3002.0,cafe
286,el refugio,0.0,0.0,0.0,0.0,0.0,2.0,38.3408195,-0.4907056,carrer d'italia / calle italia,raval de sant francesc,alacant / alicante,3003.0,bar
287,elan cabaret,0.0,0.0,0.0,0.0,0.0,2.0,38.3500069,-0.4869255,carrer capitan segarra / calle capitan segarra,nostra senyora de gracia,alacant / alicante,3004.0,pub
288,eleuterio maisonnave,0.0,0.0,0.0,0.0,0.0,4.0,38.3435353,-0.4889015,placa de calvo sotelo / plaza de calvo sotelo,nostra senyora de gracia,alacant / alicante,3003.0,artwork
289,escola de musica,1.0,1.0,1.0,0.0,1.0,1.0,38.59937599999996,-0.0488459999999956,carrer de la filharmonica,desconocido,altea,03590,house
290,escola musica,1.0,1.0,1.0,0.0,0.0,1.0,38.740885,-0.0117336999999968,carrer dâ€™alacant,urbanitzacio solana park,desconocido,03727,place_of_worship
291,escuela,0.0,0.0,1.0,0.0,0.0,0.0,38.77289559999999,-0.4267513999999985,avinguda del pais valencia,desconocido,desconocido,03829,school
292,escuela de musica,0.0,0.0,1.0,0.0,1.0,0.0,38.11435400000002,-0.7187839999999979,menendez pelayo,desconocido,desconocido,03078,music_school
293,escuela infantil,0.0,0.0,1.0,0.0,0.0,0.0,38.02986299999996,-0.7423980000000013,calle maestro fidel gomez,desconocido,desconocido,03187,school
294,escuela infantil municipal,0.0,0.0,1.0,0.0,0.0,0.0,38.08655400000004,-0.7976940000000002,calle del camino san miguel,desconocido,desconocido,03169,kindergarten
295,escuela municipal infantil,0.0,0.0,1.0,0.0,0.0,0.0,38.56804899999997,-0.2137340000000025,carrer serra cortina,desconocido,desconocido,desconocido,residential
296,escuelas municipales 1927,1.0,0.0,0.0,0.0,0.0,1.0,38.10970100000005,-0.7935490000000027,calle rafael alberti,centro,almoradi,03160,bakery
297,espacio multiusos comercial-cultural,0.0,0.0,1.0,0.0,0.0,0.0,38.11557900000003,-0.7185519999999954,fernando alonso,desconocido,desconocido,03078,residential
298,espacio polivalente segorb,0.0,0.0,1.0,0.0,0.0,0.0,38.534348000000016,-0.5065019999999977,carrer d'enric valor,barri de segorb,desconocido,03100,police
299,estacion-salamanca,0.0,0.0,0.0,0.0,0.0,3.0,38.3440763,-0.49474,avinguda de salamanca / avenida de salamanca,nostra senyora de gracia,alacant / alicante,3003.0,bus_stop
300,estadio jose rico perez,0.0,0.0,0.0,0.0,0.0,4.0,38.3573816,-0.4926034,carrer de marco oliver / calle marco oliver,altossano,alacant / alicante,3009.0,stadium
301,euipo-elche,0.0,0.0,0.0,0.0,0.0,4.0,38.3125598,-0.5164248,avinguda d'elx / avenida de elche,alicante hills,alacant / alicante,3008.0,bus_stop
302,europa,0.0,0.0,0.0,0.0,0.0,4.0,38.3367437,-0.5070558,carrer del club de futbol hercules / calle club de futbol hercules,la florida baixa,alacant / alicante,3007.0,parking
303,europhone,0.0,0.0,0.0,0.0,0.0,3.0,38.3611214,-0.4923711,avinguda de novelda / avenida de novelda,altossano,alacant / alicante,3010.0,internet_cafe
304,explanada de espanya,0.0,0.0,0.0,0.0,0.0,4.0,38.3436603,-0.4827888,la rambla / la rambla,raval de sant francesc,alacant / alicante,3001.0,bus_stop
305,ext. adm. a. la vella,0.0,0.0,0.0,0.0,1.0,0.0,38.63032050000004,-0.0437746999999968,carrer rector llinares / calle cura llinares,desconocido,altea,03599,library
306,extension administrativa la cala,0.0,1.0,0.0,0.0,0.0,1.0,38.53196100000003,-0.1684599999999954,desconocido,desconocido,desconocido,03509,residential
307,facultat de farmacia - universitat miguel hernandez d'elx,0.0,0.0,0.0,2.0,0.0,3.0,38.3872224,-0.4354765,avenida don santiago ramon y cajal,la santa fac,sant joan d'alacant,3559.0,clinic
308,falafelmania vegetariano oriental,0.0,0.0,0.0,0.0,0.0,3.0,38.3323606,-0.5089442,carrer de peru / calle peru,el palmeral,alacant / alicante,3007.0,restaurant
309,farmacia,0.0,0.0,0.0,0.0,0.0,4.0,38.360831,-0.4500242,carrer del sol naixent / calle sol naciente,albufereta,alacant / alicante,3016.0,pharmacy
310,farmacia del teatro,0.0,0.0,0.0,0.0,0.0,4.0,38.3456448,-0.486491,carrer del teatre / calle del teatro,nostra senyora de gracia,alacant / alicante,3001.0,pharmacy
311,farmacia velero blanco,0.0,0.0,0.0,0.0,0.0,4.0,38.384647,-0.4122218,carrer de la solfista concepcion rubio / calle solfista concepcion rubio,desconocido,alacant / alicante,3540.0,pharmacy
312,federopticos lledo - jornet,0.0,0.0,0.0,0.0,0.0,4.0,38.3585641,-0.4781891,carrer de sant mateu / calle san mateo,les carolines baixes,alacant / alicante,3012.0,optician
313,fixphone,0.0,0.0,0.0,0.0,0.0,4.0,38.3677022,-0.4262222,avinguda de l'historiador vicente ramos / avenida del historiador vicente ramos,albufereta,alacant / alicante,3540.0,mobile_phone
314,foster's hollywood,0.0,0.0,0.0,0.0,0.0,4.0,38.338368,-0.4864816,avinguda de perfecto palacio de la fuente / avenida perfecto palacio de la fuente,raval de sant francesc,alacant / alicante,3003.0,restaurant
315,fpa,0.0,1.0,0.0,0.0,0.0,1.0,38.6055224,-0.0460147999999949,cami de l'institut,desconocido,altea,03590,residential
316,garbinet,0.0,0.0,0.0,0.0,0.0,4.0,38.3624308,-0.4783146,avinguda del periodista rodolfo salazar / avenida del periodista rodolfo salazar,les carolines altes,alacant / alicante,3015.0,tram_stop
317,gascunyana,0.0,0.0,0.0,0.0,0.0,2.0,38.3749858,-0.4880959,carrer del farmaceutic agatangelo soler / calle farmaceutico agatangelo soler,verge del remei,alacant / alicante,3112.0,tertiary
318,gaston castello (tram),0.0,0.0,0.0,0.0,0.0,4.0,38.3733039,-0.4870928,carrer del canonge giner / calle canonigo giner,verge del remei,alacant / alicante,3112.0,bus_stop
319,gloria ferez,0.0,0.0,0.0,0.0,0.0,4.0,38.3651713,-0.4970922,carrer diagonal / calle diagonal,la tombola,alacant / alicante,3009.0,hairdresser
320,go 99,0.0,0.0,0.0,0.0,0.0,4.0,38.3401184,-0.4899004,carrer de l'arquebisbe loaces / calle arzobispo loaces,raval de sant francesc,alacant / alicante,3003.0,supermarket
321,higienetodo,0.0,0.0,0.0,0.0,0.0,4.0,38.3400827,-0.5608254,carrer del ien / calle del yen,desconocido,alacant / alicante,3114.0,residential
322,hogar 3a edad,1.0,0.0,1.0,0.0,0.0,1.0,38.72355819999999,-0.3154278000000012,avinguda del pais valencia,desconocido,desconocido,03811,garden
323,hogar del jubilado,0.0,0.0,1.0,0.0,0.0,0.0,38.71820099999996,-0.6576180000000078,carrer santa cecilia,desconocido,desconocido,03450,residential
324,holanda,0.0,0.0,0.0,0.0,0.0,4.0,38.3681319,-0.4198137,glorieta del fotoperiodista perfecto arjones,desconocido,alacant / alicante,3540.0,tram_stop
325,hospital,0.0,0.0,0.0,0.0,0.0,4.0,38.3643274,-0.4838579,avinguda del periodista rodolfo salazar / avenida del periodista rodolfo salazar,sidi ifni - nou alacant,alacant / alicante,3014.0,tram_stop
326,hospital de dia,0.0,0.0,0.0,0.0,0.0,4.0,38.3527772,-0.4764815,carrer de celia valls / calle celia valls,sant roc,alacant / alicante,3013.0,emergency_ward_entrance
327,hostal les monges palace,0.0,0.0,0.0,0.0,0.0,4.0,38.3458972,-0.4815316,carrer de les monges / calle de las monjas,centre historic,alacant / alicante,3002.0,hostel
328,hotel ac alicante,0.0,0.0,0.0,0.0,0.0,4.0,38.3386446,-0.4948575,carrer d'isabel la catolica / calle isabel la catolica,nostra senyora de gracia,alacant / alicante,3003.0,hotel
329,i2e (ingenieria informatica empresarial),0.0,0.0,0.0,0.0,0.0,4.0,38.3451668,-0.5068288,carrer d'auso y monzo / calle auso y monzo,sant ferran - princesa mercedes,alacant / alicante,3006.0,it
330,ies catral,0.0,1.0,0.0,0.0,1.0,1.0,38.164920000000016,-0.8017780000000039,calle armando ros duenas,desconocido,desconocido,03158,school
331,ies jaime ii,0.0,0.0,0.0,0.0,0.0,2.0,38.3622816,-0.470554,carrer del doctor cristobal pardo / calle doctor cristobal pardo,el garbinet,alacant / alicante,3015.0,bus_stop
332,igualdad,1.0,0.0,0.0,0.0,0.0,1.0,38.6446586,0.0424688000000015,carrer de la llibertat,la manzanera,calp,03710,house
333,indian house,0.0,0.0,0.0,0.0,0.0,4.0,38.3419112,-0.4874218,avinguda del doctor gadea / avenida doctor gadea,nostra senyora de gracia,alacant / alicante,3001.0,restaurant
334,instituto bernabeu,0.0,0.0,0.0,0.0,0.0,4.0,38.3653157,-0.4577547,carrer de fernando alfaya / calle fernando alfaya,vistahermosa,alacant / alicante,3016.0,clinic
335,joyeria marga mira,0.0,0.0,0.0,0.0,0.0,4.0,38.3443873,-0.4918548,carrer del general lacy / calle general lacy,nostra senyora de gracia,alacant / alicante,3003.0,jewelry
336,juan garcia ortiz,0.0,0.0,0.0,0.0,0.0,4.0,38.3588079,-0.4727597,avinguda padre espla / avenida padre espla,el pla del bon repos,alacant / alicante,3015.0,pharmacy
337,kfc,0.0,0.0,0.0,0.0,0.0,4.0,38.3712826,-0.4572116,calle vistahermosa provisional 10,vistahermosa norte,alacant / alicante,3016.0,fast_food
338,kontiki alicante-tabarca,0.0,0.0,0.0,0.0,0.0,3.0,38.3420311,-0.485014,passeig de l'almirall julio guillen tato / paseo del almirante julio guillen tato,raval de sant francesc,alacant / alicante,3002.0,ticket
339,la abadia,0.0,0.0,0.0,0.0,0.0,2.0,38.3622491,-0.4894648,carrer de martin luther king / calle martin luther king,altossano,alacant / alicante,3010.0,pub
340,la barraca,0.0,0.0,0.0,0.0,0.0,2.0,38.5655963,-0.1672852,desconocido,desconocido,desconocido,3509.0,residential
341,la cocina del buen comer,0.0,0.0,0.0,0.0,0.0,4.0,38.3418532,-0.4891067,carrer d'alemania / calle alemania,nostra senyora de gracia,alacant / alicante,3003.0,restaurant
342,la expo antigua escuela infantil,1.0,0.0,1.0,0.0,0.0,1.0,38.114405,-0.718345999999997,menendez pelayo,desconocido,desconocido,03078,house
343,la florida,0.0,0.0,0.0,0.0,0.0,3.0,38.3416548,-0.5139434,carrer d'artur / calle arturo,la florida baixa,alacant / alicante,3007.0,pharmacy
344,la isleta,0.0,0.0,0.0,0.0,0.0,4.0,38.3628861,-0.4470381,avinguda de la condomina / avenida de la condomina,albufereta,alacant / alicante,3016.0,tram_stop
345,la lonja,0.0,0.0,0.0,0.0,0.0,4.0,38.349374,-0.4867714,carrer capitan segarra / calle capitan segarra,nostra senyora de gracia,alacant / alicante,3004.0,restaurant
346,la masa de tomasa,0.0,0.0,0.0,2.0,0.0,4.0,38.3478149,-0.4845617,avinguda alfons el savi / avenida alfonso el sabio,nostra senyora de gracia,alacant / alicante,3202.0,bakery
347,la olivera,0.0,0.0,0.0,0.0,0.0,4.0,38.3579082,-0.4747783,avinguda padre espla / avenida padre espla,el pla del bon repos,alacant / alicante,3013.0,bus_stop
348,las piramides,0.0,0.0,0.0,0.0,0.0,4.0,38.3591127,-0.4821192,carrer de guardamar / calle guardamar,les carolines altes,alacant / alicante,3012.0,restaurant
349,lavanderia autoservicio flor de len,0.0,0.0,0.0,0.0,0.0,4.0,38.3433554,-0.5141718,carrer d'ana navarro / calle ana navarro,la florida baixa,alacant / alicante,3007.0,laundry
350,livanti gelato di sicilia,0.0,0.0,0.0,0.0,0.0,2.0,38.3451096,-0.4826072,carrer de munoz / calle munoz,centre historic,alacant / alicante,3002.0,ice_cream
351,local exposciones (anexo teatro),1.0,0.0,1.0,1.0,0.0,1.0,38.71583,-0.6573289999999998,carrer felip v,desconocido,desconocido,03450,residential
352,locales de partidos politicos asistenta social adl y,1.0,0.0,1.0,1.0,0.0,1.0,38.716391000000016,-0.6570610000000044,placa de la malva,desconocido,desconocido,03450,service
353,los hermanos,0.0,0.0,0.0,0.0,0.0,2.0,38.3410613,-0.5148617,carrer de lliber / calle lliber,la florida baixa,alacant / alicante,3007.0,cafe
354,luceros,0.0,0.0,0.0,0.0,0.0,4.0,38.3459859,-0.4905968,placa dels estels / plaza de los luceros,nostra senyora de gracia,alacant / alicante,3003.0,tram_stop
355,maldita gloria!,0.0,0.0,0.0,0.0,0.0,3.0,38.348186,-0.4883157,carrer del poeta quintana / calle poeta quintana,nostra senyora de gracia,alacant / alicante,3001.0,cafe
356,marel mujer,0.0,0.0,0.0,0.0,0.0,4.0,38.3450531,-0.4887736,carrer del teatre / calle del teatro,nostra senyora de gracia,alacant / alicante,3001.0,clothes
357,marq-castillo,0.0,0.0,0.0,0.0,0.0,4.0,38.3519992,-0.4764427,avinguda de vazquez de mella / avenida vazquez de mella,sant antoni,alacant / alicante,3013.0,subway_entrance
358,maya,0.0,0.0,0.0,0.0,0.0,4.0,38.3518506,-0.4747021,carrer del canonge manuel penalva / calle canonigo manuel penalva,sangueta,alacant / alicante,3002.0,hotel
359,mercado,0.0,0.0,0.0,2.0,0.0,4.0,38.3483516,-0.4847737,carrer de sant vicent / calle san vicente,sant antoni,alacant / alicante,3004.0,subway_entrance
360,mercado-el sabio,0.0,0.0,0.0,0.0,0.0,4.0,38.3472844,-0.4869425,avinguda alfons el savi / avenida alfonso el sabio,nostra senyora de gracia,alacant / alicante,3001.0,bus_stop
361,mercadona,0.0,0.0,0.0,0.0,0.0,4.0,38.3617135,-0.4802513,carrer de rodrigo caro / calle rodrigo caro,les carolines altes,alacant / alicante,3012.0,supermarket
362,mg electricidad,0.0,0.0,0.0,0.0,0.0,4.0,38.3634421,-0.4935631,carrer de jose reus garcia / calle jose reus garcia,els angels,alacant / alicante,3010.0,electrician
363,mileljos,0.0,0.0,0.0,2.0,0.0,4.0,38.3416311,-0.4923839,carrer dels reis catolics / calle reyes catolicos,nostra senyora de gracia,alacant / alicante,3003.0,fast_food
364,mirador del castillo,0.0,0.0,0.0,0.0,0.0,4.0,38.3481957,-0.4795226,tunel de acceso ascensor al castillo de santa barbara,sant antoni,alacant / alicante,3002.0,viewpoint
365,misericordia,0.0,0.0,0.0,0.0,0.0,4.0,38.3520973,-0.4835943,placa de l'hospital vell de san anton / plaza del hospital viejo san anton,sant antoni,alacant / alicante,3004.0,bus_stop
366,moeve,0.0,0.0,0.0,0.0,0.0,4.0,38.3856792,-0.4498206,avinguda de denia / avenida de denia,orgegia,alacant / alicante,3559.0,fuel
367,museo,1.0,0.0,1.0,0.0,0.0,1.0,38.77192120000004,-0.4251615999999937,carrer xopada,desconocido,desconocido,03829,residential
368,museo arqueologico,1.0,0.0,0.0,0.0,0.0,1.0,38.64458569999996,0.0445615999999958,placa de la villa,la manzanera,calp,03710,yes
369,museo arqueologico torre font bona,1.0,0.0,1.0,1.0,0.0,1.0,38.72081600000003,-0.6573300000000002,carrer font bona,desconocido,desconocido,03450,residential
370,museo de alfareria,0.0,0.0,0.0,0.0,0.0,0.0,38.44142100000002,-0.6402649999999994,carrer monforte,desconocido,desconocido,03698,residential
371,museo de la espardenya (villa rosario),1.0,0.0,0.0,1.0,0.0,1.0,38.722473999999984,-0.6548340000000006,passeig font del cavaller,la mallaeta,desconocido,03450,pedestrian
372,museo de la farmacia (villa rosario),1.0,0.0,0.0,0.0,0.0,1.0,38.72140000000004,-0.6558190000000035,carrer del llavadoret,desconocido,desconocido,03450,information
373,museo de la munyeca,1.0,0.0,0.0,0.0,0.0,1.0,38.62863700000001,-0.6742249999999959,avenida de la paz,desconocido,onil,03430,museum
374,museo de la senyoreta,0.0,1.0,0.0,0.0,0.0,1.0,38.64406089999997,0.0439118999999927,santisimo cristo,la manzanera,calp,03710,museum
375,museo del coco,1.0,1.0,1.0,0.0,0.0,1.0,38.6553226,0.0491849999999966,desconocido,san bernardo,calp,03710,unclassified
376,museo etnografico,0.0,0.0,1.0,0.0,0.0,0.0,38.69843499999999,-0.76814,cami del camp de mirra,desconocido,desconocido,03409,residential
377,museo etnologico,0.0,0.0,1.0,0.0,0.0,0.0,38.56695499999997,-0.214894000000002,desconocido,desconocido,desconocido,desconocido,residential
378,museo navarro/ sala de exposiciones temporales,0.0,0.0,1.0,1.0,0.0,1.0,38.698395000000005,-0.7682110000000024,cami del camp de mirra,desconocido,desconocido,03409,residential
379,museo torreo de la pea,1.0,0.0,0.0,1.0,0.0,1.0,38.64482160000001,0.0446506000000026,placa de la villa,la manzanera,calp,03710,yes
380,museo villa romana y otras dependencias,0.0,0.0,0.0,0.0,0.0,0.0,38.57380799999999,-0.0663190000000003,bulevard dels musics,pla parcial platja,desconocido,03581,archaeological_site
381,musico jose torregrosa 2,0.0,0.0,0.0,0.0,0.0,4.0,38.3867133,-0.4910545,carrer del music jose torregrosa / calle musico jose torregrosa,el palamo,alacant / alicante,3112.0,house
382,mussa beauty salon,0.0,0.0,0.0,0.0,0.0,4.0,38.3668814,-0.4262453,avinguda de l'historiador vicente ramos / avenida del historiador vicente ramos,albufereta,alacant / alicante,3540.0,beauty
383,nacara,0.0,0.0,0.0,0.0,0.0,4.0,38.3665208,-0.4290554,avinguda de l'historiador vicente ramos / avenida del historiador vicente ramos,albufereta,alacant / alicante,3540.0,cafe
384,nh,0.0,0.0,0.0,0.0,0.0,4.0,38.3364538,-0.50713,carrer del club de futbol hercules / calle club de futbol hercules,la florida baixa,alacant / alicante,3007.0,hotel
385,nostrum,0.0,0.0,0.0,0.0,0.0,4.0,38.3443064,-0.4890458,avinguda de federico soto / avenida de federico soto,nostra senyora de gracia,alacant / alicante,3001.0,house
386,nueva escuela musica y auditorio,0.0,0.0,0.0,0.0,1.0,0.0,38.028843000000016,-0.7436739999999992,calle virgen de loreto,barrio de los miras,desconocido,03187,house
387,nuevas dependencias de la casa consistorial (ayuntamie,0.0,0.0,0.0,0.0,0.0,0.0,38.57957100000005,-0.1017262999999999,carrer de les escoles,desconocido,desconocido,03580,tertiary
388,"nuevo colegio ""perpetuo socorro""",0.0,0.0,0.0,0.0,0.0,0.0,38.340176000000014,-0.7650170000000005,calle maestro alcolea,desconocido,aspe,03680,school
389,oakberry asai,0.0,0.0,0.0,0.0,0.0,4.0,38.344732,-0.4821205,carrer de rafael altamira / calle rafael altamira,centre historic,alacant / alicante,3001.0,ice_cream
390,oficinas generales,0.0,0.0,0.0,0.0,0.0,0.0,38.539343,-0.5069320000000046,carrer d'alcoi,barri de segorb,desconocido,03100,townhall
391,once,0.0,0.0,0.0,0.0,0.0,4.0,38.3637914,-0.4845753,carrer del mestre alonso / calle maestro alonso,les carolines altes,alacant / alicante,3012.0,lottery
392,optica nueva vision,0.0,0.0,0.0,0.0,0.0,4.0,38.3511071,-0.4854794,carrer del pare mariana / calle padre mariana,raval de sant antoni,alacant / alicante,3004.0,optician
393,orosia silvestre guarderia infantil,0.0,0.0,1.0,0.0,0.0,0.0,38.71400500000003,-0.6604669999999949,carrer de biar,desconocido,desconocido,03450,residential
394,padre espla-vidal,0.0,0.0,0.0,0.0,0.0,4.0,38.3562851,-0.4782265,avinguda padre espla / avenida padre espla,les carolines baixes,alacant / alicante,3013.0,bus_stop
395,palau altea,0.0,1.0,0.0,0.0,1.0,1.0,38.59936330000004,-0.0581819999999923,carrer santa teresa,desconocido,altea,03590,university
396,palmeretes,0.0,0.0,0.0,0.0,0.0,4.0,38.3553339,-0.4824524,carrer del poeta zorrilla / calle poeta zorrilla,les carolines baixes,alacant / alicante,3012.0,bus_stop
397,palmitas,0.0,0.0,0.0,4.0,0.0,4.0,38.3441689,-0.4815666,passeig de l'esplanada d'espanya / paseo de la explanada de espana,centre historic,alacant / alicante,3001.0,restaurant
398,panaderia bravo bolleria,0.0,0.0,0.0,0.0,0.0,4.0,38.3437017,-0.5110716,carrer d'asturies / calle asturias,la florida baixa,alacant / alicante,3007.0,bakery
399,parque del mar,0.0,0.0,0.0,0.0,0.0,4.0,38.3325707,-0.5061936,avinguda d'elx / avenida de elche,el palmeral,alacant / alicante,3007.0,bus_stop
400,parque del mar / parc de la mar,0.0,0.0,0.0,0.0,0.0,4.0,38.3347577,-0.4998531,desconocido,division azul,alacant / alicante,3007.0,residential
401,parque el palmeral,0.0,0.0,0.0,0.0,0.0,2.0,38.3194069,-0.5140261,avinguda d'elx / avenida de elche,desconocido,alacant / alicante,3007.0,bus_stop
402,pasarela acceso playa,0.0,0.0,0.0,0.0,0.0,4.0,38.3470854,-0.4761224,carrer de jovellanos / calle jovellanos,sant roc,alacant / alicante,3002.0,primary
403,passatge poeta bartrina / pasaje poeta bartrina,0.0,0.0,0.0,0.0,0.0,4.0,38.3742734,-0.4827015,passatge poeta bartrina / pasaje poeta bartrina,joan xxiii,alacant / alicante,3014.0,footway
404,passeig de l'escriptor joan fuster / paseo del escritor joan fuster,0.0,0.0,0.0,0.0,0.0,4.0,38.3318946,-0.5072735,avinguda d'elx / avenida de elche,el palmeral,alacant / alicante,3007.0,yes
405,passeig de l'esplanada d'espanya / paseo de la explanada de espanya,0.0,0.0,0.0,0.0,0.0,4.0,38.3432153,-0.4832701,passeig de l'esplanada d'espanya / paseo de la explanada de espana,raval de sant francesc,alacant / alicante,3001.0,footway
406,pc box,0.0,0.0,0.0,0.0,0.0,4.0,38.34494,-0.4886938,carrer del teatre / calle del teatro,nostra senyora de gracia,alacant / alicante,3001.0,computer
407,pepco,0.0,0.0,0.0,0.0,0.0,4.0,38.3748159,-0.5059183,carrer de benidoleig / calle benidoleig,la divina pastora,alacant / alicante,3011.0,clothes
408,pintor amoros,0.0,0.0,0.0,0.0,0.0,3.0,38.3706336,-0.4715152,carrer del pintor antonio amoros / calle pintor antonio amoros,ciutat elegida,alacant / alicante,3015.0,bus_stop
409,pintor gaston castello,0.0,0.0,0.0,0.0,0.0,4.0,38.3739213,-0.4871507,avinguda del pintor gaston castello / avenida del pintor gaston castello,colonia requena,alacant / alicante,3112.0,tram_stop
410,pio xii,0.0,0.0,0.0,0.0,0.0,4.0,38.355832,-0.4799831,carrer de sant mateu / calle san mateo,les carolines baixes,alacant / alicante,3013.0,bus_stop
411,piscina climatizada,0.0,0.0,0.0,0.0,0.0,4.0,38.3610735,-0.4243518,carrer de l'arpo / calle arpon,entreplatges,alacant / alicante,3540.0,sports_centre
412,piso sdad musical sta ma magdalena,0.0,0.0,1.0,0.0,0.0,0.0,38.385832,-0.7651380000000026,plaza de espana,desconocido,novelda,03660,residential
413,pizzeria popeye,0.0,0.0,0.0,0.0,0.0,4.0,38.37011,-0.4144491,avinguda de santander / avenida de santander,la platja de sant joan,alacant / alicante,3540.0,restaurant
414,plasa d'argel / plaza de argel,0.0,0.0,0.0,0.0,0.0,4.0,38.3743081,-0.4915204,carrer de valle inclan / calle valle inclan,verge del remei,alacant / alicante,3112.0,bandstand
415,plasa d'ora / plaza de oran,0.0,0.0,0.0,0.0,0.0,4.0,38.3721156,-0.4851688,placa d'ora / plaza de oran,mare de deu del carme,alacant / alicante,3112.0,house
416,plasa de conchi rodriguez vicaria / plaza conchi rodriguez vicaria,0.0,0.0,0.0,0.0,0.0,4.0,38.375737,-0.4956985,carrer del clot / calle clot,el clot,alacant / alicante,3011.0,bench
417,plasa de l'arquitecte miguel lopez / plaza del arquitecto miguel lopez,0.0,0.0,0.0,0.0,0.0,4.0,38.3380061,-0.4930059,placa de l'arquitecte miguel lopez / plaza del arquitecto miguel lopez,raval de sant francesc,alacant / alicante,3003.0,fountain
418,plasa de l'esportista andres munyoz / plaza del deportista andres munyoz,0.0,0.0,0.0,0.0,0.0,4.0,38.3384951,-0.4926727,placa de l'esportista andres munoz / plaza del deportista andres munoz,raval de sant francesc,alacant / alicante,3003.0,playground
419,plasa de la creu / plaza de la cruz,0.0,0.0,0.0,0.0,0.0,4.0,38.376449,-0.4880233,placa de la creu / plaza de la cruz,verge del remei,alacant / alicante,3112.0,footway
420,plasa de la cruz / plaza de la cruz,0.0,0.0,0.0,0.0,0.0,4.0,38.3758794,-0.4893682,placa de la cruz / plaza de la cruz,colonia requena,alacant / alicante,3112.0,footway
421,plasa de les escoles / plaza de las escuelas,0.0,0.0,0.0,0.0,0.0,4.0,38.3758024,-0.4925542,placa de les escoles / plaza de las escuelas,verge del remei,alacant / alicante,3112.0,footway
422,plasa del doctor gascunyana hernando / plaza del doctor gascunyana hernando,0.0,0.0,0.0,0.0,0.0,4.0,38.3750713,-0.4882798,placa del doctor gascunana hernando / plaza del doctor gascunana hernando,verge del remei,alacant / alicante,3112.0,footway
423,plasa del papa joan pau ii / plaza del papa juan pablo ii,0.0,0.0,0.0,0.0,0.0,4.0,38.3534913,-0.5117808,placa del papa joan pau ii / plaza del papa juan pablo ii,joan pau ii / juan pablo ii,alacant / alicante,3006.0,residential
424,plasa del poble gitano / plaza del pueblo gitano,0.0,0.0,0.0,0.0,0.0,2.0,38.3583524,-0.4907421,carrer alferez diaz sanchis / calle alferez diaz sanchis,campoamor,alacant / alicante,3004.0,steps
425,plasa dels estels / plaza de los luceros,0.0,0.0,0.0,0.0,0.0,3.0,38.3460049,-0.490678,placa dels estels / plaza de los luceros,nostra senyora de gracia,alacant / alicante,3003.0,station
426,platja d'aigua amarga,0.0,0.0,0.0,0.0,0.0,3.0,38.299863,-0.5189107,passeig del music ignacio juan barcelo / paseo musico ignacio juan barcelo,desconocido,alacant / alicante,3008.0,biergarten
427,plaza castalla,0.0,0.0,0.0,0.0,0.0,2.0,38.3696222,-0.4711409,placa de castalla / plaza de castalla,ciutat elegida,alacant / alicante,3015.0,bus_stop
428,plaza de espanya 4,0.0,0.0,0.0,0.0,0.0,3.0,38.3516599,-0.4853625,placa d'espanya / plaza de espana,raval de sant antoni,alacant / alicante,3004.0,bus_stop
429,plaza de espanya-panteon de quijano,0.0,0.0,0.0,0.0,0.0,3.0,38.3514,-0.4847416,placa d'espanya / plaza de espana,sant antoni,alacant / alicante,3004.0,bus_stop
430,plenergy,0.0,0.0,0.0,0.0,0.0,4.0,38.3714114,-0.4577111,calle vistahermosa provisional 10,vistahermosa norte,alacant / alicante,3016.0,charging_station
431,policia local,0.0,0.0,0.0,0.0,0.0,4.0,38.3645207,-0.4100177,avinguda de napols / avenida de napoles,desconocido,alacant / alicante,3540.0,police
432,polideportivo justo hidalgo ruiz,0.0,0.0,0.0,0.0,0.0,4.0,38.3691401,-0.4829114,carrer del diputat joaquin galant ruiz / calle diputado joaquin galant ruiz,mare de deu del carme,alacant / alicante,3112.0,house
433,polideportivo municipal,0.0,0.0,0.0,0.0,1.0,0.0,38.596084499999975,-0.6674609000000045,tinent general don vicente ripoll vals,desconocido,castalla,03430,residential
434,polideportivo municipal - casa conserje + biblio+pisci,0.0,0.0,1.0,0.0,1.0,0.0,38.38454600000003,-0.7564230000000008,avenida compositor vicente diez clemente,desconocido,novelda,03660,sports_centre
435,polideportivo municipal stadium,0.0,0.0,0.0,0.0,0.0,3.0,38.3611393,-0.4245176,carrer del trident / calle tridente,entreplatges,alacant / alicante,3540.0,fitness_centre
436,primark,0.0,0.0,0.0,0.0,0.0,4.0,38.3672564,-0.4696366,carrer de jose garcia selles / calle jose garcia selles,el garbinet,alacant / alicante,3015.0,clothes
437,punto roma,0.0,0.0,0.0,0.0,0.0,4.0,38.3434217,-0.4892289,avenida de maisonnave / avinguda de maisonnave,nostra senyora de gracia,alacant / alicante,3003.0,clothes
438,r. altamira,0.0,0.0,0.0,0.0,0.0,4.0,38.3443553,-0.4828569,carrer de rafael altamira / calle rafael altamira,centre historic,alacant / alicante,3001.0,bus_stop
439,radiologia,0.0,0.0,0.0,0.0,0.0,4.0,38.3523711,-0.4757895,carrer de celia valls / calle celia valls,sant roc,alacant / alicante,3013.0,emergency_ward_entrance
440,radioterapia,0.0,0.0,0.0,0.0,0.0,4.0,38.3524669,-0.4762525,carrer de celia valls / calle celia valls,sant roc,alacant / alicante,3013.0,emergency_ward_entrance
441,rambla mendez nunyez 4-6,0.0,0.0,0.0,0.0,0.0,4.0,38.3441059,-0.4830176,la rambla / la rambla,raval de sant francesc,alacant / alicante,3001.0,bus_stop
442,rambla-portal de elche,0.0,0.0,0.0,0.0,0.0,4.0,38.3446147,-0.4834853,la rambla / la rambla,raval de sant francesc,alacant / alicante,3001.0,bus_stop
443,rambla-san jose,0.0,0.0,0.0,0.0,0.0,4.0,38.3451765,-0.4836064,la rambla / la rambla,raval de sant francesc,alacant / alicante,3001.0,bus_stop
444,refugio guerra civil seneca,0.0,0.0,0.0,0.0,0.0,2.0,38.3413023,-0.490676,carrer del pintor lorenzo casanova / calle pintor lorenzo casanova,nostra senyora de gracia,alacant / alicante,3003.0,attraction
445,representantes,0.0,0.0,0.0,0.0,0.0,4.0,38.3523192,-0.4862858,avinguda de l'alcalde alfonso de rojas / avenida del alcalde alfonso de rojas,raval de sant antoni,alacant / alicante,3004.0,bus_stop
446,residencia 3a edad,0.0,0.0,1.0,0.0,1.0,0.0,38.75657320000002,-0.2747351000000044,carrer nou,desconocido,desconocido,03813,house
447,residencia tercera edad,0.0,0.0,0.0,0.0,0.0,0.0,38.156066999999965,-0.8031450000000024,calle vicente blasco ibanez,desconocido,desconocido,03158,social_facility
448,restaurante darsena,0.0,0.0,0.0,0.0,0.0,4.0,38.338395,-0.4869017,avinguda de perfecto palacio de la fuente / avenida perfecto palacio de la fuente,raval de sant francesc,alacant / alicante,3003.0,restaurant
449,restaurante goyo,0.0,0.0,0.0,0.0,0.0,3.0,38.34005,-0.4900517,carrer de l'arquebisbe loaces / calle arzobispo loaces,raval de sant francesc,alacant / alicante,3003.0,restaurant
450,restaurante tailandes sabatika,0.0,0.0,0.0,0.0,0.0,4.0,38.3663084,-0.4304591,avinguda de l'historiador vicente ramos / avenida del historiador vicente ramos,albufereta,alacant / alicante,3540.0,restaurant
451,sabor marva,0.0,0.0,0.0,0.0,0.0,2.0,38.3482892,-0.4926235,carrer del mestre marques / calle maestro marques,nostra senyora de gracia,alacant / alicante,3003.0,cafe
452,sala actividades la cala,0.0,0.0,1.0,1.0,0.0,1.0,38.52952400000005,-0.1666589999999994,avinguda marina baixa,la cala de finestrat,desconocido,03509,bus_stop
453,sala multiusos en pamis,0.0,0.0,1.0,0.0,0.0,0.0,38.81810899999996,0.0095629999999945,cv-7260,desconocido,desconocido,03778,tertiary
454,san gabriel-cercanias,0.0,0.0,0.0,0.0,0.0,4.0,38.3290672,-0.5091648,avinguda d'elx / avenida de elche,el palmeral,alacant / alicante,3007.0,bus_stop
455,santa faz,0.0,0.0,0.0,0.0,0.0,4.0,38.3446548,-0.4830219,carrer major / calle mayor,centre historic,alacant / alicante,3001.0,cafe
456,senda del poeta,0.0,0.0,0.0,0.0,0.0,2.0,38.3486495,-0.5783577,senda del poeta,el pla de la vallonga,alacant / alicante,3114.0,path
457,sergio cardell,0.0,0.0,0.0,0.0,0.0,4.0,38.3647338,-0.4323103,glorieta de l'esportista sergio cardell / glorieta del deportista sergio cardell,albufereta,alacant / alicante,3540.0,tram_stop
458,servicios sociales,0.0,0.0,0.0,0.0,0.0,0.0,38.10795900000002,-0.7882140000000043,calle antimo illescas,centro,almoradi,03160,pedestrian
459,seu universitaria ciutat d'alacant / sede universitaria ciudad de alicante,0.0,0.0,0.0,0.0,0.0,4.0,38.3416092,-0.487079,avinguda del doctor gadea / avenida doctor gadea,nostra senyora de gracia,alacant / alicante,3001.0,university
460,sip and wonder,0.0,0.0,0.0,0.0,0.0,4.0,38.3476979,-0.4874669,carrer del poeta campos vassallo / calle poeta campos vassallo,nostra senyora de gracia,alacant / alicante,3004.0,cafe
461,smile & co hostal,0.0,0.0,0.0,0.0,0.0,3.0,38.3429579,-0.4867299,carrer de rafael terol / calle rafael terol,raval de sant francesc,alacant / alicante,3001.0,hotel
462,sociedad musical,1.0,1.0,0.0,0.0,0.0,1.0,38.71541899999998,-0.6571539999999992,carrer major,desconocido,desconocido,03450,house
463,soda bar,0.0,0.0,0.0,0.0,0.0,4.0,38.3465326,-0.4862873,carrer del metge pascual perez / calle medico pascual perez,nostra senyora de gracia,alacant / alicante,3001.0,bar
464,sotelo 10,0.0,0.0,0.0,0.0,0.0,3.0,38.3436028,-0.4886034,placa de calvo sotelo / plaza de calvo sotelo,nostra senyora de gracia,alacant / alicante,3001.0,cafe
465,spar,0.0,0.0,0.0,0.0,0.0,4.0,38.3574482,-0.4824449,carrer de montero rios / calle montero rios,les carolines altes,alacant / alicante,3012.0,supermarket
466,sukiya,0.0,0.0,0.0,4.0,0.0,4.0,38.3484319,-0.487625,carrer del poeta quintana / calle poeta quintana,nostra senyora de gracia,alacant / alicante,3001.0,restaurant
467,suma,0.0,0.0,0.0,0.0,0.0,4.0,38.3469514,-0.4843385,carrer de saragossa / calle zaragoza,raval de sant francesc,alacant / alicante,3001.0,supermarket
468,suma gestion tributaria,0.0,0.0,0.0,0.0,0.0,4.0,38.3432968,-0.5097687,carrer de l'astronom comas sola / calle astronomo comas sola,la florida baixa,alacant / alicante,3007.0,government
469,supercor,0.0,0.0,0.0,0.0,0.0,4.0,38.3479677,-0.4845536,avinguda alfons el savi / avenida alfonso el sabio,nostra senyora de gracia,alacant / alicante,3004.0,supermarket
470,svaps,0.0,0.0,0.0,0.0,0.0,2.0,38.3460037,-0.4880084,carrer del metge pascual perez / calle medico pascual perez,nostra senyora de gracia,alacant / alicante,3001.0,e-cigarette
471,taberna la vendimia,0.0,0.0,0.0,0.0,0.0,3.0,38.3609616,-0.4895266,carrer de llinares / calle llinares,altossano,alacant / alicante,3010.0,restaurant
472,taberna rincon de miguel 2,0.0,0.0,0.0,0.0,0.0,4.0,38.3571926,-0.4788917,carrer de sant mateu / calle san mateo,les carolines baixes,alacant / alicante,3013.0,restaurant
473,taller ocupacional (antigua casa medico),0.0,0.0,1.0,0.0,0.0,0.0,38.72128200000003,-0.6554739999999974,passeig font del cavaller,la mallaeta,desconocido,03450,service
474,talleres d&d eurotaller,0.0,0.0,0.0,0.0,0.0,4.0,38.3383915,-0.5197594,carrer de la rosa dels vents / calle rosa de los vientos,ciutat d'assis,alacant / alicante,3008.0,car_repair
475,tapis,1.0,0.0,0.0,0.0,0.0,1.0,38.38990699999999,-0.7715910000000019,calle botanico pere cabanillas,desconocido,novelda,03660,social_facility
476,teatre auditori,0.0,0.0,0.0,0.0,0.0,0.0,38.51158899999998,-0.2308070000000028,carrer de la doctora damiana zaragoza,desconocido,la vila joiosa / villajoyosa,03570,theatre
477,teatret,0.0,0.0,1.0,0.0,1.0,0.0,38.54248900000002,-0.5067860000000034,carrer de sant francesc,barri de l'almarx,desconocido,03100,place_of_worship
478,teatro cortes,0.0,0.0,0.0,0.0,0.0,0.0,38.11081200000001,-0.7894020000000048,calle comunidad valenciana,centro,almoradi,03160,theatre
479,teatro municipal cardenal belluga,0.0,0.0,1.0,0.0,0.0,0.0,38.11259999999999,-0.7216150000000013,rojales,desconocido,desconocido,03078,theatre
480,teatro principal,1.0,1.0,0.0,0.0,1.0,1.0,38.71582099999998,-0.6573279999999966,carrer felip v,desconocido,desconocido,03450,residential
481,teatro wagner,1.0,0.0,0.0,0.0,1.0,1.0,38.34333500000003,-0.7711860000000027,calle miguel de unamuno,desconocido,aspe,03680,theatre
482,tedi,0.0,0.0,0.0,0.0,0.0,4.0,38.3404801,-0.490889,carrer d'italia / calle italia,raval de sant francesc,alacant / alicante,3003.0,variety_store
483,telepizza,0.0,0.0,0.0,0.0,0.0,4.0,38.3445308,-0.5094853,avinguda d'oriola / avenida de orihuela,la florida baixa,alacant / alicante,3007.0,fast_food
484,tepemok,0.0,0.0,0.0,0.0,0.0,4.0,38.3497067,-0.4878388,carrer de manuel anton / calle manuel anton,nostra senyora de gracia,alacant / alicante,3004.0,convenience
485,the good burger,0.0,0.0,0.0,0.0,0.0,4.0,38.3441014,-0.4837338,placa del portal d'elx / plaza portal de elche,raval de sant francesc,alacant / alicante,3001.0,fast_food
486,tim hortons,0.0,0.0,0.0,0.0,0.0,4.0,38.3444617,-0.4958563,carrer de rigoberto ferrer / calle rigoberto ferrer,alipark,alacant / alicante,3003.0,cafe
487,torre mauro,0.0,0.0,0.0,0.0,0.0,4.0,38.3660534,-0.4308318,avinguda d'ansaldo / avenida de ansaldo,albufereta,alacant / alicante,3540.0,restaurant
488,tourist info,0.0,0.0,0.0,0.0,0.0,4.0,38.3438616,-0.4799467,passeig del port / paseo del puerto,centre historic,alacant / alicante,3002.0,office
489,treasure media,0.0,0.0,0.0,0.0,0.0,2.0,38.3478868,-0.4757336,carrer de la mare de deu del socors / calle virgen del socorro,sant roc,alacant / alicante,3002.0,studio
490,udaco,0.0,0.0,0.0,0.0,0.0,4.0,38.3482511,-0.4753267,carrer de la mare de deu del socors / calle virgen del socorro,sant roc,alacant / alicante,3002.0,convenience
491,ulanka,0.0,0.0,0.0,0.0,0.0,4.0,38.343408,-0.4893328,avenida de maisonnave / avinguda de maisonnave,nostra senyora de gracia,alacant / alicante,3003.0,shoes
492,umh - universitat miguel hernandez - campus de sant joan d'alacant,0.0,0.0,0.0,4.0,0.0,4.0,38.3885882,-0.4363055,avenida don santiago ramon y cajal,la santa fac,sant joan d'alacant,3559.0,clinic
493,universitat d'alacant / universidad de alicante (campus de sant vicent),0.0,0.0,0.0,0.0,0.0,3.0,38.3849307,-0.5141978,pinada de los cuentos,universidad,sant vicent del raspeig / san vicente del raspeig,3699.0,tree
494,urgencies,0.0,0.0,0.0,0.0,0.0,4.0,38.3527883,-0.4758436,carrer de celia valls / calle celia valls,sant roc,alacant / alicante,3013.0,emergency_ward_entrance
495,v. reyes,0.0,0.0,0.0,0.0,0.0,4.0,38.3648024,-0.4720701,carrer del metge vicente reyes / calle medico vicente reyes,el garbinet,alacant / alicante,3015.0,bus_stop
496,valencia once,0.0,0.0,0.0,4.0,0.0,4.0,38.3525297,-0.4838708,carrer de valencia / calle valencia,sant antoni,alacant / alicante,3004.0,restaurant
497,villafranqueza-iglesia,0.0,0.0,0.0,0.0,0.0,4.0,38.3866462,-0.491036,carrer del music jose torregrosa / calle musico jose torregrosa,el palamo,alacant / alicante,3112.0,bus_stop
498,vincent's,0.0,0.0,0.0,0.0,0.0,2.0,38.3442686,-0.4918454,carrer del general lacy / calle general lacy,nostra senyora de gracia,alacant / alicante,3003.0,pub
499,vivero de peces romano,0.0,0.0,0.0,2.0,0.0,2.0,38.3620046,-0.4411195,avinguda de la condomina / avenida de la condomina,albufereta,alacant / alicante,3016.0,archaeological_site
500,vivienda social,1.0,1.0,1.0,1.0,1.0,1.0,38.16156000000001,-0.8009899999999955,calle virgen de monserrate,desconocido,desconocido,03158,books
501,wen zhou shang chang,0.0,0.0,0.0,0.0,0.0,4.0,38.3412352,-0.4892395,carrer d'italia / calle italia,raval de sant francesc,alacant / alicante,3003.0,supermarket
